OPEN: COM8

$GPZDA,231547.00,28,10,2014,-07,00*46

$GPVTG,,,,,,,,,N*30

$GPGSA,A,1,,,,,,,,,,,,,,,*1E

$GPGSV,1,1,00,,,,,,,,,,,,,,,,*79

$GPRMC,,V,,,,,,,,,,N*53

$GPZDA,231548.00,28,10,2014,-07,00*49

$GPVTG,,,,,,,,,N*30

$GPGSA,A,1,,,,,,,,,,,,,,,*1E

$GPGSV,1,1,00,,,,,,,,,,,,,,,,*79

$GPRMC,,V,,,,,,,,,,N*53

$GPZDA,231549.00,28,10,2014,-07,00*48

$GPVTG,,,,,,,,,N*30

$GPGSA,A,1,,,,,,,,,,,,,,,*1E

$GPGSV,1,1,00,,,,,,,,,,,,,,,,*79

$GPRMC,,V,,,,,,,,,,N*53

$GPZDA,231550.00,28,10,2014,-07,00*40

$GPVTG,,,,,,,,,N*30

$GPGSA,A,1,,,,,,,,,,,,,,,*1E

$GPGSV,1,1,00,,,,,,,,,,,,,,,,*79

$GPRMC,,V,,,,,,,,,,N*53

$GPZDA,231551.00,28,10,2014,-07,00*41

$GPVTG,,,,,,,,,N*30

$GPGSA,A,1,,,,,,,,,,,,,,,*1E

$GPGSV,1,1,00,,,,,,,,,,,,,,,,*79

$GPRMC,,V,,,,,,,,,,N*53

$GPZDA,231552.00,28,10,2014,-07,00*42

$GPVTG,,,,,,,,,N*30

$GPGSA,A,1,,,,,,,,,,,,,,,*1E

$GPGSV,1,1,00,,,,,,,,,,,,,,,,*79

$GPRMC,,V,,,,,,,,,,N*53

$GPZDA,231553.00,28,10,2014,-07,00*43

$GPVTG,,,,,,,,,N*30

$GPGSA,A,1,,,,,,,,,,,,,,,*1E

$GPGSV,1,1,00,,,,,,,,,,,,,,,,*79

$GPRMC,,V,,,,,,,,,,N*53

$GPZDA,231554.01,28,10,2014,-07,00*45

$GPVTG,,,,,,,,,N*30

$GPGSA,A,1,,,,,,,,,,,,,,,*1E

$GPGSV,1,1,00,,,,,,,,,,,,,,,,*79

$GPRMC,,V,,,,,,,,,,N*53

$GPZDA,231555.00,28,10,2014,-07,00*45

$GPVTG,,,,,,,,,N*30

$GPGSA,A,1,,,,,,,,,,,,,,,*1E

$GPGSV,1,1,00,,,,,,,,,,,,,,,,*79

$GPRMC,,V,,,,,,,,,,N*53

$GPZDA,231556.00,28,10,2014,-07,00*46

$GPVTG,,,,,,,,,N*30

$GPGSA,A,1,,,,,,,,,,,,,,,*1E

$GPGSV,1,1,00,,,,,,,,,,,,,,,,*79

$GPRMC,,V,,,,,,,,,,N*53

$GPZDA,231557.00,28,10,2014,-07,00*47

$GPVTG,,,,,,,,,N*30

$GPGSA,A,1,,,,,,,,,,,,,,,*1E

$GPGSV,1,1,00,,,,,,,,,,,,,,,,*79

$GPRMC,,V,,,,,,,,,,N*53

$GPZDA,231558.00,28,10,2014,-07,00*48

$GPVTG,,,,,,,,,N*30

$GPGSA,A,1,,,,,,,,,,,,,,,*1E

$GPGSV,1,1,00,,,,,,,,,,,,,,,,*79

$GPRMC,,V,,,,,,,,,,N*53

$GPZDA,231559.01,28,10,2014,-07,00*48

$GPVTG,,,,,,,,,N*30

$GPGSA,A,1,,,,,,,,,,,,,,,*1E

$GPGSV,1,1,00,,,,,,,,,,,,,,,,*79

$GPRMC,,V,,,,,,,,,,N*53

$GPZDA,231600.00,28,10,2014,-07,00*46

$GPVTG,,,,,,,,,N*30

$GPGSA,A,1,,,,,,,,,,,,,,,*1E

$GPGSV,1,1,00,,,,,,,,,,,,,,,,*79

$GPRMC,,V,,,,,,,,,,N*53

$GPZDA,231601.00,28,10,2014,-07,00*47

$GPVTG,,,,,,,,,N*30

$GPGSA,A,1,,,,,,,,,,,,,,,*1E

$GPGSV,1,1,00,,,,,,,,,,,,,,,,*79

$GPRMC,,V,,,,,,,,,,N*53

$GPZDA,231602.00,28,10,2014,-07,00*44

$GPVTG,,,,,,,,,N*30

$GPGSA,A,1,,,,,,,,,,,,,,,*1E

$GPGSV,1,1,00,,,,,,,,,,,,,,,,*79

$GPRMC,,V,,,,,,,,,,N*53

$GPZDA,231603.00,28,10,2014,-07,00*45

$GPVTG,,,,,,,,,N*30

$GPGSA,A,1,,,,,,,,,,,,,,,*1E

$GPGSV,1,1,00,,,,,,,,,,,,,,,,*79

$GPRMC,,V,,,,,,,,,,N*53

$GPZDA,231604.01,28,10,2014,-07,00*43

$GPVTG,,,,,,,,,N*30

$GPGSA,A,1,,,,,,,,,,,,,,,*1E

$GPGSV,1,1,00,,,,,,,,,,,,,,,,*79

$GPRMC,,V,,,,,,,,,,N*53

$GPZDA,231605.00,28,10,2014,-07,00*43

$GPVTG,,,,,,,,,N*30

$GPGSA,A,1,,,,,,,,,,,,,,,*1E

$GPGSV,1,1,00,,,,,,,,,,,,,,,,*79

$GPRMC,,V,,,,,,,,,,N*53

$GPZDA,231606.00,28,10,2014,-07,00*40

$GPVTG,,,,,,,,,N*30

$GPGSA,A,1,,,,,,,,,,,,,,,*1E

$GPGSV,1,1,00,,,,,,,,,,,,,,,,*79

$GPRMC,,V,,,,,,,,,,N*53

$GPZDA,231607.00,28,10,2014,-07,00*41

$GPVTG,,,,,,,,,N*30

$GPGSA,A,1,,,,,,,,,,,,,,,*1E

$GPGSV,1,1,00,,,,,,,,,,,,,,,,*79

$GPRMC,,V,,,,,,,,,,N*53

$GPZDA,231608.00,28,10,2014,-07,00*4E

$GPVTG,,,,,,,,,N*30

$GPGSA,A,1,,,,,,,,,,,,,,,*1E

$GPGSV,1,1,00,,,,,,,,,,,,,,,,*79

$GPRMC,,V,,,,,,,,,,N*53

$GPZDA,231609.00,28,10,2014,-07,00*4F

$GPVTG,,,,,,,,,N*30

$GPGSA,A,1,,,,,,,,,,,,,,,*1E

$GPGSV,1,1,00,,,,,,,,,,,,,,,,*79

$GPRMC,,V,,,,,,,,,,N*53

$GPZDA,231610.00,28,10,2014,-07,00*47

$GPVTG,,,,,,,,,N*30

$GPGSA,A,1,,,,,,,,,,,,,,,*1E

$GPGSV,1,1,00,,,,,,,,,,,,,,,,*79

$GPRMC,,V,,,,,,,,,,N*53

$GPZDA,231611.00,28,10,2014,-07,00*46

$GPVTG,,,,,,,,,N*30

$GPGSA,A,1,,,,,,,,,,,,,,,*1E

$GPGSV,1,1,00,,,,,,,,,,,,,,,,*79

$GPRMC,,V,,,,,,,,,,N*53

$GPZDA,231612.00,28,10,2014,-07,00*45

$GPVTG,,,,,,,,,N*30

$GPGSA,A,1,,,,,,,,,,,,,,,*1E

$GPGSV,1,1,00,,,,,,,,,,,,,,,,*79

$GPRMC,,V,,,,,,,,,,N*53

$GPZDA,231613.00,28,10,2014,-07,00*44

$GPVTG,,,,,,,,,N*30

$GPGSA,A,1,,,,,,,,,,,,,,,*1E

$GPGSV,1,1,00,,,,,,,,,,,,,,,,*79

$GPRMC,,V,,,,,,,,,,N*53

$GPZDA,231614.01,28,10,2014,-07,00*42

$GPVTG,,,,,,,,,N*30

$GPGSA,A,1,,,,,,,,,,,,,,,*1E

$GPGSV,1,1,00,,,,,,,,,,,,,,,,*79

$GPRMC,,V,,,,,,,,,,N*53

$GPZDA,231615.00,28,10,2014,-07,00*42

$GPVTG,,,,,,,,,N*30

$GPGSA,A,1,,,,,,,,,,,,,,,*1E

$GPGSV,1,1,00,,,,,,,,,,,,,,,,*79

$GPRMC,,V,,,,,,,,,,N*53

$GPZDA,231616.00,28,10,2014,-07,00*41

$GPVTG,,,,,,,,,N*30

$GPGSA,A,1,,,,,,,,,,,,,,,*1E

$GPGSV,1,1,00,,,,,,,,,,,,,,,,*79

$GPRMC,,V,,,,,,,,,,N*53

$GPZDA,231617.00,28,10,2014,-07,00*40

$GPVTG,,,,,,,,,N*30

$GPGSA,A,1,,,,,,,,,,,,,,,*1E

$GPGSV,1,1,00,,,,,,,,,,,,,,,,*79

$GPRMC,,V,,,,,,,,,,N*53

$GPZDA,231618.00,28,10,2014,-07,00*4F

$GPVTG,,,,,,,,,N*30

$GPGSA,A,1,,,,,,,,,,,,,,,*1E

$GPGSV,1,1,00,,,,,,,,,,,,,,,,*79

$GPRMC,,V,,,,,,,,,,N*53

$GPZDA,231619.01,28,10,2014,-07,00*4F

$GPVTG,,,,,,,,,N*30

$GPGSA,A,1,,,,,,,,,,,,,,,*1E

$GPGSV,1,1,00,,,,,,,,,,,,,,,,*79

$GPRMC,,V,,,,,,,,,,N*53

$GPZDA,231620.00,28,10,2014,-07,00*44

$GPVTG,,,,,,,,,N*30

$GPGSA,A,1,,,,,,,,,,,,,,,*1E

$GPGSV,1,1,00,,,,,,,,,,,,,,,,*79

$GPRMC,,V,,,,,,,,,,N*53

$GPZDA,231621.00,28,10,2014,-07,00*45

$GPVTG,,,,,,,,,N*30

$GPGSA,A,1,,,,,,,,,,,,,,,*1E

$GPGSV,1,1,00,,,,,,,,,,,,,,,,*79

$GPRMC,,V,,,,,,,,,,N*53

$GPZDA,231622.00,28,10,2014,-07,00*46

$GPVTG,,,,,,,,,N*30

$GPGSA,A,1,,,,,,,,,,,,,,,*1E

$GPGSV,1,1,00,,,,,,,,,,,,,,,,*79

$GPRMC,,V,,,,,,,,,,N*53

$GPZDA,231623.00,28,10,2014,-07,00*47

$GPVTG,,,,,,,,,N*30

$GPGSA,A,1,,,,,,,,,,,,,,,*1E

$GPGSV,1,1,00,,,,,,,,,,,,,,,,*79

$GPRMC,,V,,,,,,,,,,N*53

$GPZDA,231624.00,28,10,2014,-07,00*40

$GPVTG,,,,,,,,,N*30

$GPGSA,A,1,,,,,,,,,,,,,,,*1E

$GPGSV,1,1,00,,,,,,,,,,,,,,,,*79

$GPRMC,,V,,,,,,,,,,N*53

$GPZDA,231625.00,28,10,2014,-07,00*41

$GPVTG,,,,,,,,,N*30

$GPGSA,A,1,,,,,,,,,,,,,,,*1E

$GPGSV,1,1,00,,,,,,,,,,,,,,,,*79

$GPRMC,,V,,,,,,,,,,N*53

$GPZDA,231626.00,28,10,2014,-07,00*42

$GPVTG,,,,,,,,,N*30

$GPGSA,A,1,,,,,,,,,,,,,,,*1E

$GPGSV,1,1,00,,,,,,,,,,,,,,,,*79

$GPRMC,,V,,,,,,,,,,N*53

$GPZDA,231627.00,28,10,2014,-07,00*43

$GPVTG,,,,,,,,,N*30

$GPGSA,A,1,,,,,,,,,,,,,,,*1E

$GPGSV,1,1,00,,,,,,,,,,,,,,,,*79

$GPRMC,,V,,,,,,,,,,N*53

$GPZDA,231628.00,28,10,2014,-07,00*4C

$GPVTG,,,,,,,,,N*30

$GPGSA,A,1,,,,,,,,,,,,,,,*1E

$GPGSV,1,1,00,,,,,,,,,,,,,,,,*79

$GPRMC,,V,,,,,,,,,,N*53

$GPZDA,231629.01,28,10,2014,-07,00*4C

$GPVTG,,,,,,,,,N*30

$GPGSA,A,1,,,,,,,,,,,,,,,*1E

$GPGSV,1,1,00,,,,,,,,,,,,,,,,*79

$GPRMC,,V,,,,,,,,,,N*53

$GPZDA,231630.00,28,10,2014,-07,00*45

$GPVTG,,,,,,,,,N*30

$GPGSA,A,1,,,,,,,,,,,,,,,*1E

$GPGSV,1,1,00,,,,,,,,,,,,,,,,*79

$GPRMC,,V,,,,,,,,,,N*53

$GPZDA,231631.00,28,10,2014,-07,00*44

$GPVTG,,,,,,,,,N*30

$GPGSA,A,1,,,,,,,,,,,,,,,*1E

$GPGSV,1,1,00,,,,,,,,,,,,,,,,*79

$GPRMC,,V,,,,,,,,,,N*53

$GPZDA,231632.00,28,10,2014,-07,00*47

$GPVTG,,,,,,,,,N*30

$GPGSA,A,1,,,,,,,,,,,,,,,*1E

$GPGSV,1,1,00,,,,,,,,,,,,,,,,*79

$GPRMC,,V,,,,,,,,,,N*53

$GPZDA,231633.00,28,10,2014,-07,00*46

$GPVTG,,,,,,,,,N*30

$GPGSA,A,1,,,,,,,,,,,,,,,*1E

$GPGSV,1,1,00,,,,,,,,,,,,,,,,*79

$GPRMC,,V,,,,,,,,,,N*53

$GPZDA,231634.00,28,10,2014,-07,00*41

$GPVTG,,,,,,,,,N*30

$GPGSA,A,1,,,,,,,,,,,,,,,*1E

$GPGSV,1,1,00,,,,,,,,,,,,,,,,*79

$GPRMC,,V,,,,,,,,,,N*53

$GPZDA,231635.00,28,10,2014,-07,00*40

$GPVTG,,,,,,,,,N*30

$GPGSA,A,1,,,,,,,,,,,,,,,*1E

$GPGSV,1,1,00,,,,,,,,,,,,,,,,*79

$GPRMC,,V,,,,,,,,,,N*53

$GPZDA,231636.00,28,10,2014,-07,00*43

$GPVTG,,,,,,,,,N*30

$GPGSA,A,1,,,,,,,,,,,,,,,*1E

$GPGSV,1,1,00,,,,,,,,,,,,,,,,*79

$GPRMC,,V,,,,,,,,,,N*53

$GPZDA,231637.00,28,10,2014,-07,00*42

$GPVTG,,,,,,,,,N*30

$GPGSA,A,1,,,,,,,,,,,,,,,*1E

$GPGSV,1,1,00,,,,,,,,,,,,,,,,*79

$GPRMC,,V,,,,,,,,,,N*53

$GPZDA,231638.00,28,10,2014,-07,00*4D

$GPVTG,,,,,,,,,N*30

$GPGSA,A,1,,,,,,,,,,,,,,,*1E

$GPGSV,1,1,00,,,,,,,,,,,,,,,,*79

$GPRMC,,V,,,,,,,,,,N*53

$GPZDA,231639.00,28,10,2014,-07,00*4C

$GPVTG,,,,,,,,,N*30

$GPGSA,A,1,,,,,,,,,,,,,,,*1E

$GPGSV,1,1,00,,,,,,,,,,,,,,,,*79

$GPRMC,,V,,,,,,,,,,N*53

$GPZDA,231640.00,28,10,2014,-07,00*42

$GPVTG,,,,,,,,,N*30

$GPGSA,A,1,,,,,,,,,,,,,,,*1E

$GPGSV,1,1,00,,,,,,,,,,,,,,,,*79

$GPRMC,,V,,,,,,,,,,N*53

$GPZDA,231641.00,28,10,2014,-07,00*43

$GPVTG,,,,,,,,,N*30

$GPGSA,A,1,,,,,,,,,,,,,,,*1E

$GPGSV,1,1,00,,,,,,,,,,,,,,,,*79

$GPRMC,,V,,,,,,,,,,N*53

$GPZDA,231642.01,28,10,2014,-07,00*41

$GPVTG,,,,,,,,,N*30

$GPGSA,A,1,,,,,,,,,,,,,,,*1E

$GPGSV,1,1,00,,,,,,,,,,,,,,,,*79

$GPRMC,,V,,,,,,,,,,N*53

$GPZDA,231643.00,28,10,2014,-07,00*41

$GPVTG,,,,,,,,,N*30

$GPGSA,A,1,,,,,,,,,,,,,,,*1E

$GPGSV,1,1,00,,,,,,,,,,,,,,,,*79

$GPRMC,,V,,,,,,,,,,N*53

$GPZDA,231644.00,28,10,2014,-07,00*46

$GPVTG,,,,,,,,,N*30

$GPGSA,A,1,,,,,,,,,,,,,,,*1E

$GPGSV,1,1,00,,,,,,,,,,,,,,,,*79

$GPRMC,,V,,,,,,,,,,N*53

$GPZDA,231645.00,28,10,2014,-07,00*47

$GPVTG,,,,,,,,,N*30

$GPGSA,A,1,,,,,,,,,,,,,,,*1E

$GPGSV,1,1,00,,,,,,,,,,,,,,,,*79

$GPRMC,,V,,,,,,,,,,N*53

$GPZDA,231646.00,28,10,2014,-07,00*44

$GPVTG,,,,,,,,,N*30

$GPGSA,A,1,,,,,,,,,,,,,,,*1E

$GPGSV,1,1,00,,,,,,,,,,,,,,,,*79

$GPRMC,,V,,,,,,,,,,N*53

$GPZDA,231647.01,28,10,2014,-07,00*44

$GPVTG,,,,,,,,,N*30

$GPGSA,A,1,,,,,,,,,,,,,,,*1E

$GPGSV,1,1,00,,,,,,,,,,,,,,,,*79

$GPRMC,,V,,,,,,,,,,N*53

$GPZDA,231648.00,28,10,2014,-07,00*4A

$GPVTG,,,,,,,,,N*30

$GPGSA,A,1,,,,,,,,,,,,,,,*1E

$GPGSV,1,1,00,,,,,,,,,,,,,,,,*79

$GPRMC,,V,,,,,,,,,,N*53

$GPZDA,231649.00,28,10,2014,-07,00*4B

$GPVTG,,,,,,,,,N*30

$GPGSA,A,1,,,,,,,,,,,,,,,*1E

$GPGSV,1,1,00,,,,,,,,,,,,,,,,*79

$GPRMC,,V,,,,,,,,,,N*53

$GPZDA,231650.00,28,10,2014,-07,00*43

$GPVTG,,,,,,,,,N*30

$GPGSA,A,1,,,,,,,,,,,,,,,*1E

$GPGSV,1,1,00,,,,,,,,,,,,,,,,*79

$GPRMC,,V,,,,,,,,,,N*53

$GPZDA,231651.00,28,10,2014,-07,00*42

$GPVTG,,,,,,,,,N*30

$GPGSA,A,1,,,,,,,,,,,,,,,*1E

$GPGSV,1,1,00,,,,,,,,,,,,,,,,*79

$GPRMC,,V,,,,,,,,,,N*53

$GPZDA,231652.00,28,10,2014,-07,00*41

$GPVTG,,,,,,,,,N*30

$GPGSA,A,1,,,,,,,,,,,,,,,*1E

$GPGSV,1,1,00,,,,,,,,,,,,,,,,*79

$GPRMC,,V,,,,,,,,,,N*53

$GPZDA,231653.00,28,10,2014,-07,00*40

$GPVTG,,,,,,,,,N*30

$GPGSA,A,1,,,,,,,,,,,,,,,*1E

$GPGSV,1,1,00,,,,,,,,,,,,,,,,*79

$GPRMC,,V,,,,,,,,,,N*53

$GPZDA,231654.00,28,10,2014,-07,00*47

$GPVTG,,,,,,,,,N*30

$GPGSA,A,1,,,,,,,,,,,,,,,*1E

$GPGSV,1,1,00,,,,,,,,,,,,,,,,*79

$GPRMC,,V,,,,,,,,,,N*53

$GPZDA,231655.00,28,10,2014,-07,00*46

$GPVTG,,,,,,,,,N*30

$GPGSA,A,1,,,,,,,,,,,,,,,*1E

$GPGSV,1,1,00,,,,,,,,,,,,,,,,*79

$GPRMC,,V,,,,,,,,,,N*53

$GPZDA,231656.00,28,10,2014,-07,00*45

$GPVTG,,,,,,,,,N*30

$GPGSA,A,1,,,,,,,,,,,,,,,*1E

$GPGSV,1,1,00,,,,,,,,,,,,,,,,*79

$GPRMC,,V,,,,,,,,,,N*53

$GPZDA,231657.00,28,10,2014,-07,00*44

$GPVTG,,,,,,,,,N*30

$GPGSA,A,1,,,,,,,,,,,,,,,*1E

$GPGSV,1,1,00,,,,,,,,,,,,,,,,*79

$GPRMC,,V,,,,,,,,,,N*53

$GPZDA,231658.00,28,10,2014,-07,00*4B

$GPVTG,,,,,,,,,N*30

$GPGSA,A,1,,,,,,,,,,,,,,,*1E

$GPGSV,1,1,00,,,,,,,,,,,,,,,,*79

$GPRMC,,V,,,,,,,,,,N*53

$GPZDA,231659.00,28,10,2014,-07,00*4A

$GPVTG,,,,,,,,,N*30

$GPGSA,A,1,,,,,,,,,,,,,,,*1E

$GPGSV,1,1,00,,,,,,,,,,,,,,,,*79

$GPRMC,,V,,,,,,,,,,N*53

$GPZDA,231700.00,28,10,2014,-07,00*47

$GPVTG,,,,,,,,,N*30

$GPGSA,A,1,,,,,,,,,,,,,,,*1E

$GPGSV,1,1,00,,,,,,,,,,,,,,,,*79

$GPRMC,,V,,,,,,,,,,N*53

$GPZDA,231701.00,28,10,2014,-07,00*46

$GPVTG,,,,,,,,,N*30

$GPGSA,A,1,,,,,,,,,,,,,,,*1E

$GPGSV,1,1,00,,,,,,,,,,,,,,,,*79

$GPRMC,,V,,,,,,,,,,N*53

$GPZDA,231702.00,28,10,2014,-07,00*45

$GPVTG,,,,,,,,,N*30

$GPGSA,A,1,,,,,,,,,,,,,,,*1E

$GPGSV,1,1,00,,,,,,,,,,,,,,,,*79

$GPRMC,,V,,,,,,,,,,N*53

$GPZDA,231703.00,28,10,2014,-07,00*44

$GPVTG,,,,,,,,,N*30

$GPGSA,A,1,,,,,,,,,,,,,,,*1E

$GPGSV,1,1,00,,,,,,,,,,,,,,,,*79

$GPRMC,,V,,,,,,,,,,N*53

$GPZDA,231704.00,28,10,2014,-07,00*43

$GPVTG,,,,,,,,,N*30

$GPGSA,A,1,,,,,,,,,,,,,,,*1E

$GPGSV,1,1,00,,,,,,,,,,,,,,,,*79

$GPRMC,,V,,,,,,,,,,N*53

$GPZDA,231705.00,28,10,2014,-07,00*42

$GPVTG,,,,,,,,,N*30

$GPGSA,A,1,,,,,,,,,,,,,,,*1E

$GPGSV,1,1,00,,,,,,,,,,,,,,,,*79

$GPRMC,,V,,,,,,,,,,N*53

$GPZDA,231706.00,28,10,2014,-07,00*41

$GPVTG,,,,,,,,,N*30

$GPGSA,A,1,,,,,,,,,,,,,,,*1E

$GPGSV,1,1,00,,,,,,,,,,,,,,,,*79

$GPRMC,,V,,,,,,,,,,N*53

$GPZDA,231707.00,28,10,2014,-07,00*40

$GPVTG,,,,,,,,,N*30

$GPGSA,A,1,,,,,,,,,,,,,,,*1E

$GPGSV,1,1,00,,,,,,,,,,,,,,,,*79

$GPRMC,,V,,,,,,,,,,N*53

$GPZDA,231708.00,28,10,2014,-07,00*4F

$GPVTG,,,,,,,,,N*30

$GPGSA,A,1,,,,,,,,,,,,,,,*1E

$GPGSV,1,1,00,,,,,,,,,,,,,,,,*79

$GPRMC,,V,,,,,,,,,,N*53

$GPZDA,231709.01,28,10,2014,-07,00*4F

$GPVTG,,,,,,,,,N*30

$GPGSA,A,1,,,,,,,,,,,,,,,*1E

$GPGSV,1,1,00,,,,,,,,,,,,,,,,*79

$GPRMC,,V,,,,,,,,,,N*53

$GPZDA,231710.00,28,10,2014,-07,00*46

$GPVTG,,,,,,,,,N*30

$GPGSA,A,1,,,,,,,,,,,,,,,*1E

$GPGSV,1,1,00,,,,,,,,,,,,,,,,*79

$GPRMC,,V,,,,,,,,,,N*53

$GPZDA,231711.00,28,10,2014,-07,00*47

$GPVTG,,,,,,,,,N*30

$GPGSA,A,1,,,,,,,,,,,,,,,*1E

$GPGSV,1,1,00,,,,,,,,,,,,,,,,*79

$GPRMC,,V,,,,,,,,,,N*53

$GPZDA,231712.01,28,10,2014,-07,00*45

$GPVTG,,,,,,,,,N*30

$GPGSA,A,1,,,,,,,,,,,,,,,*1E

$GPGSV,1,1,00,,,,,,,,,,,,,,,,*79

$GPRMC,,V,,,,,,,,,,N*53

$GPZDA,231713.00,28,10,2014,-07,00*45

$GPVTG,,,,,,,,,N*30

$GPGSA,A,1,,,,,,,,,,,,,,,*1E

$GPGSV,1,1,00,,,,,,,,,,,,,,,,*79

$GPRMC,,V,,,,,,,,,,N*53

$GPZDA,231714.01,28,10,2014,-07,00*43

$GPVTG,,,,,,,,,N*30

$GPGSA,A,1,,,,,,,,,,,,,,,*1E

$GPGSV,1,1,00,,,,,,,,,,,,,,,,*79

$GPRMC,,V,,,,,,,,,,N*53

$GPZDA,231715.00,28,10,2014,-07,00*43

$GPVTG,,,,,,,,,N*30

$GPGSA,A,1,,,,,,,,,,,,,,,*1E

$GPGSV,1,1,00,,,,,,,,,,,,,,,,*79

$GPRMC,,V,,,,,,,,,,N*53

$GPZDA,231716.00,28,10,2014,-07,00*40

$GPVTG,,,,,,,,,N*30

$GPGSA,A,1,,,,,,,,,,,,,,,*1E

$GPGSV,1,1,00,,,,,,,,,,,,,,,,*79

$GPRMC,,V,,,,,,,,,,N*53

$GPZDA,231717.01,28,10,2014,-07,00*40

$GPVTG,,,,,,,,,N*30

$GPGSA,A,1,,,,,,,,,,,,,,,*1E

$GPGSV,1,1,00,,,,,,,,,,,,,,,,*79

$GPRMC,,V,,,,,,,,,,N*53

$GPZDA,231718.00,28,10,2014,-07,00*4E

$GPVTG,,,,,,,,,N*30

$GPGSA,A,1,,,,,,,,,,,,,,,*1E

$GPGSV,1,1,00,,,,,,,,,,,,,,,,*79

$GPRMC,,V,,,,,,,,,,N*53

$GPZDA,231719.00,28,10,2014,-07,00*4F

$GPVTG,,,,,,,,,N*30

$GPGSA,A,1,,,,,,,,,,,,,,,*1E

$GPGSV,1,1,00,,,,,,,,,,,,,,,,*79

$GPRMC,,V,,,,,,,,,,N*53

$GPZDA,231720.00,28,10,2014,-07,00*45

$GPVTG,,,,,,,,,N*30

$GPGSA,A,1,,,,,,,,,,,,,,,*1E

$GPGSV,1,1,00,,,,,,,,,,,,,,,,*79

$GPRMC,,V,,,,,,,,,,N*53

$GPZDA,231721.00,28,10,2014,-07,00*44

$GPVTG,,,,,,,,,N*30

$GPGSA,A,1,,,,,,,,,,,,,,,*1E

$GPGSV,1,1,00,,,,,,,,,,,,,,,,*79

$GPRMC,,V,,,,,,,,,,N*53

$GPZDA,231722.01,28,10,2014,-07,00*46

$GPVTG,,,,,,,,,N*30

$GPGSA,A,1,,,,,,,,,,,,,,,*1E

$GPGSV,1,1,00,,,,,,,,,,,,,,,,*79

$GPRMC,,V,,,,,,,,,,N*53

$GPZDA,231723.00,28,10,2014,-07,00*46

$GPVTG,,,,,,,,,N*30

$GPGSA,A,1,,,,,,,,,,,,,,,*1E

$GPGSV,1,1,00,,,,,,,,,,,,,,,,*79

$GPRMC,,V,,,,,,,,,,N*53

$GPZDA,231724.00,28,10,2014,-07,00*41

$GPVTG,,,,,,,,,N*30

$GPGSA,A,1,,,,,,,,,,,,,,,*1E

$GPGSV,1,1,00,,,,,,,,,,,,,,,,*79

$GPRMC,,V,,,,,,,,,,N*53

$GPZDA,231725.00,28,10,2014,-07,00*40

$GPVTG,,,,,,,,,N*30

$GPGSA,A,1,,,,,,,,,,,,,,,*1E

$GPGSV,1,1,00,,,,,,,,,,,,,,,,*79

$GPRMC,,V,,,,,,,,,,N*53

$GPZDA,231726.00,28,10,2014,-07,00*43

$GPVTG,,,,,,,,,N*30

$GPGSA,A,1,,,,,,,,,,,,,,,*1E

$GPGSV,1,1,00,,,,,,,,,,,,,,,,*79

$GPRMC,,V,,,,,,,,,,N*53

$GPZDA,231727.00,28,10,2014,-07,00*42

$GPVTG,,,,,,,,,N*30

$GPGSA,A,1,,,,,,,,,,,,,,,*1E

$GPGSV,1,1,00,,,,,,,,,,,,,,,,*79

$GPRMC,,V,,,,,,,,,,N*53

$GPZDA,231728.00,28,10,2014,-07,00*4D

$GPVTG,,,,,,,,,N*30

$GPGSA,A,1,,,,,,,,,,,,,,,*1E

$GPGSV,1,1,00,,,,,,,,,,,,,,,,*79

$GPRMC,,V,,,,,,,,,,N*53

$GPZDA,231729.00,28,10,2014,-07,00*4C

$GPVTG,,,,,,,,,N*30

$GPGSA,A,1,,,,,,,,,,,,,,,*1E

$GPGSV,1,1,00,,,,,,,,,,,,,,,,*79

$GPRMC,,V,,,,,,,,,,N*53

$GPZDA,231730.00,28,10,2014,-07,00*44

$GPVTG,,,,,,,,,N*30

$GPGSA,A,1,,,,,,,,,,,,,,,*1E

$GPGSV,1,1,00,,,,,,,,,,,,,,,,*79

$GPRMC,,V,,,,,,,,,,N*53

$GPZDA,231731.00,28,10,2014,-07,00*45

$GPVTG,,,,,,,,,N*30

$GPGSA,A,1,,,,,,,,,,,,,,,*1E

$GPGSV,1,1,00,,,,,,,,,,,,,,,,*79

$GPRMC,,V,,,,,,,,,,N*53

$GPZDA,231732.00,28,10,2014,-07,00*46

$GPVTG,,,,,,,,,N*30

$GPGSA,A,1,,,,,,,,,,,,,,,*1E

$GPGSV,1,1,00,,,,,,,,,,,,,,,,*79

$GPRMC,,V,,,,,,,,,,N*53

$GPZDA,231733.00,28,10,2014,-07,00*47

$GPVTG,,,,,,,,,N*30

$GPGSA,A,1,,,,,,,,,,,,,,,*1E

$GPGSV,1,1,00,,,,,,,,,,,,,,,,*79

$GPRMC,,V,,,,,,,,,,N*53

$GPZDA,231734.00,28,10,2014,-07,00*40

$GPVTG,,,,,,,,,N*30

$GPGSA,A,1,,,,,,,,,,,,,,,*1E

$GPGSV,1,1,00,,,,,,,,,,,,,,,,*79

$GPRMC,,V,,,,,,,,,,N*53

$GPZDA,231735.00,28,10,2014,-07,00*41

$GPVTG,,,,,,,,,N*30

$GPGSA,A,1,,,,,,,,,,,,,,,*1E

$GPGSV,1,1,00,,,,,,,,,,,,,,,,*79

$GPRMC,,V,,,,,,,,,,N*53

$GPZDA,231736.00,28,10,2014,-07,00*42

$GPVTG,,,,,,,,,N*30

$GPGSA,A,1,,,,,,,,,,,,,,,*1E

$GPGSV,1,1,00,,,,,,,,,,,,,,,,*79

$GPRMC,,V,,,,,,,,,,N*53

$GPZDA,231737.00,28,10,2014,-07,00*43

$GPVTG,,,,,,,,,N*30

$GPGSA,A,1,,,,,,,,,,,,,,,*1E

$GPGSV,1,1,00,,,,,,,,,,,,,,,,*79

$GPRMC,,V,,,,,,,,,,N*53

$GPZDA,231738.00,28,10,2014,-07,00*4C

$GPVTG,,,,,,,,,N*30

$GPGSA,A,1,,,,,,,,,,,,,,,*1E

$GPGSV,1,1,00,,,,,,,,,,,,,,,,*79

$GPRMC,,V,,,,,,,,,,N*53

$GPZDA,231739.00,28,10,2014,-07,00*4D

$GPVTG,,,,,,,,,N*30

$GPGSA,A,1,,,,,,,,,,,,,,,*1E

$GPGSV,1,1,00,,,,,,,,,,,,,,,,*79

$GPRMC,,V,,,,,,,,,,N*53

$GPZDA,231740.00,28,10,2014,-07,00*43

$GPVTG,,,,,,,,,N*30

$GPGSA,A,1,,,,,,,,,,,,,,,*1E

$GPGSV,1,1,00,,,,,,,,,,,,,,,,*79

$GPRMC,,V,,,,,,,,,,N*53

$GPZDA,231741.00,28,10,2014,-07,00*42

$GPVTG,,,,,,,,,N*30

$GPGSA,A,1,,,,,,,,,,,,,,,*1E

$GPGSV,1,1,00,,,,,,,,,,,,,,,,*79

$GPRMC,,V,,,,,,,,,,N*53

$GPZDA,231742.00,28,10,2014,-07,00*41

$GPVTG,,,,,,,,,N*30

$GPGSA,A,1,,,,,,,,,,,,,,,*1E

$GPGSV,1,1,00,,,,,,,,,,,,,,,,*79

$GPRMC,,V,,,,,,,,,,N*53

$GPZDA,231743.00,28,10,2014,-07,00*40

$GPVTG,,,,,,,,,N*30

$GPGSA,A,1,,,,,,,,,,,,,,,*1E

$GPGSV,1,1,00,,,,,,,,,,,,,,,,*79

$GPRMC,,V,,,,,,,,,,N*53

$GPZDA,231744.00,28,10,2014,-07,00*47

$GPVTG,,,,,,,,,N*30

$GPGSA,A,1,,,,,,,,,,,,,,,*1E

$GPGSV,1,1,00,,,,,,,,,,,,,,,,*79

$GPRMC,,V,,,,,,,,,,N*53

$GPZDA,231745.00,28,10,2014,-07,00*46

$GPVTG,,,,,,,,,N*30

$GPGSA,A,1,,,,,,,,,,,,,,,*1E

$GPGSV,1,1,00,,,,,,,,,,,,,,,,*79

$GPRMC,,V,,,,,,,,,,N*53

$GPZDA,231746.00,28,10,2014,-07,00*45

$GPVTG,,,,,,,,,N*30

$GPGSA,A,1,,,,,,,,,,,,,,,*1E

$GPGSV,1,1,00,,,,,,,,,,,,,,,,*79

$GPRMC,,V,,,,,,,,,,N*53

$GPZDA,231747.01,28,10,2014,-07,00*45

$GPVTG,,,,,,,,,N*30

$GPGSA,A,1,,,,,,,,,,,,,,,*1E

$GPGSV,1,1,00,,,,,,,,,,,,,,,,*79

$GPRMC,,V,,,,,,,,,,N*53

$GPZDA,231748.00,28,10,2014,-07,00*4B

$GPVTG,,,,,,,,,N*30

$GPGSA,A,1,,,,,,,,,,,,,,,*1E

$GPGSV,1,1,00,,,,,,,,,,,,,,,,*79

$GPRMC,,V,,,,,,,,,,N*53

$GPZDA,231749.00,28,10,2014,-07,00*4A

$GPVTG,,,,,,,,,N*30

$GPGSA,A,1,,,,,,,,,,,,,,,*1E

$GPGSV,1,1,00,,,,,,,,,,,,,,,,*79

$GPRMC,,V,,,,,,,,,,N*53

$GPZDA,231750.00,28,10,2014,-07,00*42

$GPVTG,,,,,,,,,N*30

$GPGSA,A,1,,,,,,,,,,,,,,,*1E

$GPGSV,1,1,00,,,,,,,,,,,,,,,,*79

$GPRMC,,V,,,,,,,,,,N*53

$GPZDA,231751.00,28,10,2014,-07,00*43

$GPVTG,,,,,,,,,N*30

$GPGSA,A,1,,,,,,,,,,,,,,,*1E

$GPGSV,1,1,00,,,,,,,,,,,,,,,,*79

$GPRMC,,V,,,,,,,,,,N*53

$GPZDA,231752.01,28,10,2014,-07,00*41

$GPVTG,,,,,,,,,N*30

$GPGSA,A,1,,,,,,,,,,,,,,,*1E

$GPGSV,1,1,00,,,,,,,,,,,,,,,,*79

$GPRMC,,V,,,,,,,,,,N*53

$GPZDA,231753.00,28,10,2014,-07,00*41

$GPVTG,,,,,,,,,N*30

$GPGSA,A,1,,,,,,,,,,,,,,,*1E

$GPGSV,1,1,00,,,,,,,,,,,,,,,,*79

$GPRMC,,V,,,,,,,,,,N*53

$GPZDA,231754.00,28,10,2014,-07,00*46

$GPVTG,,,,,,,,,N*30

$GPGSA,A,1,,,,,,,,,,,,,,,*1E

$GPGSV,1,1,00,,,,,,,,,,,,,,,,*79

$GPRMC,,V,,,,,,,,,,N*53

$GPZDA,231755.00,28,10,2014,-07,00*47

$GPVTG,,,,,,,,,N*30

$GPGSA,A,1,,,,,,,,,,,,,,,*1E

$GPGSV,1,1,00,,,,,,,,,,,,,,,,*79

$GPRMC,,V,,,,,,,,,,N*53

$GPZDA,231756.00,28,10,2014,-07,00*44

$GPVTG,,,,,,,,,N*30

$GPGSA,A,1,,,,,,,,,,,,,,,*1E

$GPGSV,1,1,00,,,,,,,,,,,,,,,,*79

$GPRMC,,V,,,,,,,,,,N*53

$GPZDA,231757.01,28,10,2014,-07,00*44

$GPVTG,,,,,,,,,N*30

$GPGSA,A,1,,,,,,,,,,,,,,,*1E

$GPGSV,1,1,00,,,,,,,,,,,,,,,,*79

$GPRMC,,V,,,,,,,,,,N*53

$GPZDA,231758.00,28,10,2014,-07,00*4A

$GPVTG,,,,,,,,,N*30

$GPGSA,A,1,,,,,,,,,,,,,,,*1E

$GPGSV,1,1,00,,,,,,,,,,,,,,,,*79

$GPRMC,,V,,,,,,,,,,N*53

$GPZDA,231759.00,28,10,2014,-07,00*4B

$GPVTG,,,,,,,,,N*30

$GPGSA,A,1,,,,,,,,,,,,,,,*1E

$GPGSV,1,1,00,,,,,,,,,,,,,,,,*79

$GPRMC,,V,,,,,,,,,,N*53

$GPZDA,231800.00,28,10,2014,-07,00*48

$GPVTG,,,,,,,,,N*30

$GPGSA,A,1,,,,,,,,,,,,,,,*1E

$GPGSV,1,1,00,,,,,,,,,,,,,,,,*79

$GPRMC,,V,,,,,,,,,,N*53

$GPZDA,231801.00,28,10,2014,-07,00*49

$GPVTG,,,,,,,,,N*30

$GPGSA,A,1,,,,,,,,,,,,,,,*1E

$GPGSV,1,1,00,,,,,,,,,,,,,,,,*79

$GPRMC,,V,,,,,,,,,,N*53

$GPZDA,231802.00,28,10,2014,-07,00*4A

$GPVTG,,,,,,,,,N*30

$GPGSA,A,1,,,,,,,,,,,,,,,*1E

$GPGSV,1,1,00,,,,,,,,,,,,,,,,*79

$GPRMC,,V,,,,,,,,,,N*53

$GPZDA,231803.00,28,10,2014,-07,00*4B

$GPVTG,,,,,,,,,N*30

$GPGSA,A,1,,,,,,,,,,,,,,,*1E

$GPGSV,1,1,00,,,,,,,,,,,,,,,,*79

$GPRMC,,V,,,,,,,,,,N*53

$GPZDA,231804.00,28,10,2014,-07,00*4C

$GPVTG,,,,,,,,,N*30

$GPGSA,A,1,,,,,,,,,,,,,,,*1E

$GPGSV,1,1,00,,,,,,,,,,,,,,,,*79

$GPRMC,,V,,,,,,,,,,N*53

$GPZDA,231805.00,28,10,2014,-07,00*4D

$GPVTG,,,,,,,,,N*30

$GPGSA,A,1,,,,,,,,,,,,,,,*1E

$GPGSV,1,1,00,,,,,,,,,,,,,,,,*79

$GPRMC,,V,,,,,,,,,,N*53

$GPZDA,231806.00,28,10,2014,-07,00*4E

$GPVTG,,,,,,,,,N*30

$GPGSA,A,1,,,,,,,,,,,,,,,*1E

$GPGSV,1,1,00,,,,,,,,,,,,,,,,*79

$GPRMC,,V,,,,,,,,,,N*53

$GPZDA,231807.00,28,10,2014,-07,00*4F

$GPVTG,,,,,,,,,N*30

$GPGSA,A,1,,,,,,,,,,,,,,,*1E

$GPGSV,1,1,00,,,,,,,,,,,,,,,,*79

$GPRMC,,V,,,,,,,,,,N*53

$GPZDA,231808.00,28,10,2014,-07,00*40

$GPVTG,,,,,,,,,N*30

$GPGSA,A,1,,,,,,,,,,,,,,,*1E

$GPGSV,1,1,00,,,,,,,,,,,,,,,,*79

$GPRMC,,V,,,,,,,,,,N*53

$GPZDA,231809.00,28,10,2014,-07,00*41

$GPVTG,,,,,,,,,N*30

$GPGSA,A,1,,,,,,,,,,,,,,,*1E

$GPGSV,1,1,00,,,,,,,,,,,,,,,,*79

$GPRMC,,V,,,,,,,,,,N*53

$GPZDA,231810.00,28,10,2014,-07,00*49

$GPVTG,,,,,,,,,N*30

$GPGSA,A,1,,,,,,,,,,,,,,,*1E

$GPGSV,1,1,00,,,,,,,,,,,,,,,,*79

$GPRMC,,V,,,,,,,,,,N*53

$GPZDA,231811.00,28,10,2014,-07,00*48

$GPVTG,,,,,,,,,N*30

$GPGSA,A,1,,,,,,,,,,,,,,,*1E

$GPGSV,1,1,00,,,,,,,,,,,,,,,,*79

$GPRMC,,V,,,,,,,,,,N*53

$GPZDA,231812.00,28,10,2014,-07,00*4B

$GPVTG,,,,,,,,,N*30

$GPGSA,A,1,,,,,,,,,,,,,,,*1E

$GPGSV,1,1,00,,,,,,,,,,,,,,,,*79

$GPRMC,,V,,,,,,,,,,N*53

$GPZDA,231813.00,28,10,2014,-07,00*4A

$GPVTG,,,,,,,,,N*30

$GPGSA,A,1,,,,,,,,,,,,,,,*1E

$GPGSV,1,1,00,,,,,,,,,,,,,,,,*79

$GPRMC,,V,,,,,,,,,,N*53

$GPZDA,231814.00,28,10,2014,-07,00*4D

$GPVTG,,,,,,,,,N*30

$GPGSA,A,1,,,,,,,,,,,,,,,*1E

$GPGSV,1,1,00,,,,,,,,,,,,,,,,*79

$GPRMC,,V,,,,,,,,,,N*53

$GPZDA,231815.00,28,10,2014,-07,00*4C

$GPVTG,,,,,,,,,N*30

$GPGSA,A,1,,,,,,,,,,,,,,,*1E

$GPGSV,1,1,00,,,,,,,,,,,,,,,,*79

$GPRMC,,V,,,,,,,,,,N*53

$GPZDA,231816.00,28,10,2014,-07,00*4F

$GPVTG,,,,,,,,,N*30

$GPGSA,A,1,,,,,,,,,,,,,,,*1E

$GPGSV,1,1,00,,,,,,,,,,,,,,,,*79

$GPRMC,,V,,,,,,,,,,N*53

$GPZDA,231817.00,28,10,2014,-07,00*4E

$GPVTG,,,,,,,,,N*30

$GPGSA,A,1,,,,,,,,,,,,,,,*1E

$GPGSV,1,1,00,,,,,,,,,,,,,,,,*79

$GPRMC,,V,,,,,,,,,,N*53

$GPZDA,231818.00,28,10,2014,-07,00*41

$GPVTG,,,,,,,,,N*30

$GPGSA,A,1,,,,,,,,,,,,,,,*1E

$GPGSV,1,1,00,,,,,,,,,,,,,,,,*79

$GPRMC,,V,,,,,,,,,,N*53

$GPZDA,231819.00,28,10,2014,-07,00*40

$GPVTG,,,,,,,,,N*30

$GPGSA,A,1,,,,,,,,,,,,,,,*1E

$GPGSV,1,1,00,,,,,,,,,,,,,,,,*79

$GPRMC,,V,,,,,,,,,,N*53

$GPZDA,231820.00,28,10,2014,-07,00*4A

$GPVTG,,,,,,,,,N*30

$GPGSA,A,1,,,,,,,,,,,,,,,*1E

$GPGSV,1,1,00,,,,,,,,,,,,,,,,*79

$GPRMC,,V,,,,,,,,,,N*53

$GPZDA,231821.00,28,10,2014,-07,00*4B

$GPVTG,,,,,,,,,N*30

$GPGSA,A,1,,,,,,,,,,,,,,,*1E

$GPGSV,1,1,00,,,,,,,,,,,,,,,,*79

$GPRMC,,V,,,,,,,,,,N*53

$GPZDA,231822.01,28,10,2014,-07,00*49

$GPVTG,,,,,,,,,N*30

$GPGSA,A,1,,,,,,,,,,,,,,,*1E

$GPGSV,1,1,00,,,,,,,,,,,,,,,,*79

$GPRMC,,V,,,,,,,,,,N*53

$GPZDA,231823.00,28,10,2014,-07,00*49

$GPVTG,,,,,,,,,N*30

$GPGSA,A,1,,,,,,,,,,,,,,,*1E

$GPGSV,1,1,00,,,,,,,,,,,,,,,,*79

$GPRMC,,V,,,,,,,,,,N*53

$GPZDA,231824.00,28,10,2014,-07,00*4E

$GPVTG,,,,,,,,,N*30

$GPGSA,A,1,,,,,,,,,,,,,,,*1E

$GPGSV,1,1,00,,,,,,,,,,,,,,,,*79

$GPRMC,,V,,,,,,,,,,N*53

$GPZDA,231825.00,28,10,2014,-07,00*4F

$GPVTG,,,,,,,,,N*30

$GPGSA,A,1,,,,,,,,,,,,,,,*1E

$GPGSV,1,1,00,,,,,,,,,,,,,,,,*79

$GPRMC,,V,,,,,,,,,,N*53

$GPZDA,231826.00,28,10,2014,-07,00*4C

$GPVTG,,,,,,,,,N*30

$GPGSA,A,1,,,,,,,,,,,,,,,*1E

$GPGSV,1,1,00,,,,,,,,,,,,,,,,*79

$GPRMC,,V,,,,,,,,,,N*53

$GPZDA,231827.01,28,10,2014,-07,00*4C

$GPVTG,,,,,,,,,N*30

$GPGSA,A,1,,,,,,,,,,,,,,,*1E

$GPGSV,1,1,00,,,,,,,,,,,,,,,,*79

$GPRMC,,V,,,,,,,,,,N*53

$GPZDA,231828.00,28,10,2014,-07,00*42

$GPVTG,,,,,,,,,N*30

$GPGSA,A,1,,,,,,,,,,,,,,,*1E

$GPGSV,1,1,00,,,,,,,,,,,,,,,,*79

$GPRMC,,V,,,,,,,,,,N*53

$GPZDA,231829.00,28,10,2014,-07,00*43

$GPVTG,,,,,,,,,N*30

$GPGSA,A,1,,,,,,,,,,,,,,,*1E

$GPGSV,1,1,00,,,,,,,,,,,,,,,,*79

$GPRMC,,V,,,,,,,,,,N*53

$GPZDA,231830.00,28,10,2014,-07,00*4B

$GPVTG,,,,,,,,,N*30

$GPGSA,A,1,,,,,,,,,,,,,,,*1E

$GPGSV,1,1,00,,,,,,,,,,,,,,,,*79

$GPRMC,,V,,,,,,,,,,N*53

$GPZDA,231831.00,28,10,2014,-07,00*4A

$GPVTG,,,,,,,,,N*30

$GPGSA,A,1,,,,,,,,,,,,,,,*1E

$GPGSV,1,1,00,,,,,,,,,,,,,,,,*79

$GPRMC,,V,,,,,,,,,,N*53

$GPZDA,231832.01,28,10,2014,-07,00*48

$GPVTG,,,,,,,,,N*30

$GPGSA,A,1,,,,,,,,,,,,,,,*1E

$GPGSV,1,1,00,,,,,,,,,,,,,,,,*79

$GPRMC,,V,,,,,,,,,,N*53

$GPZDA,231833.00,28,10,2014,-07,00*48

$GPVTG,,,,,,,,,N*30

$GPGSA,A,1,,,,,,,,,,,,,,,*1E

$GPGSV,1,1,00,,,,,,,,,,,,,,,,*79

$GPRMC,,V,,,,,,,,,,N*53

$GPZDA,231834.00,28,10,2014,-07,00*4F

$GPVTG,,,,,,,,,N*30

$GPGSA,A,1,,,,,,,,,,,,,,,*1E

$GPGSV,1,1,00,,,,,,,,,,,,,,,,*79

$GPRMC,,V,,,,,,,,,,N*53

$GPZDA,231835.00,28,10,2014,-07,00*4E

$GPVTG,,,,,,,,,N*30

$GPGSA,A,1,,,,,,,,,,,,,,,*1E

$GPGSV,1,1,00,,,,,,,,,,,,,,,,*79

$GPRMC,,V,,,,,,,,,,N*53

$GPZDA,231836.00,28,10,2014,-07,00*4D

$GPVTG,,,,,,,,,N*30

$GPGSA,A,1,,,,,,,,,,,,,,,*1E

$GPGSV,1,1,00,,,,,,,,,,,,,,,,*79

$GPRMC,,V,,,,,,,,,,N*53

$GPZDA,231837.00,28,10,2014,-07,00*4C

$GPVTG,,,,,,,,,N*30

$GPGSA,A,1,,,,,,,,,,,,,,,*1E

$GPGSV,1,1,00,,,,,,,,,,,,,,,,*79

$GPRMC,,V,,,,,,,,,,N*53

$GPZDA,231838.00,28,10,2014,-07,00*43

$GPVTG,,,,,,,,,N*30

$GPGSA,A,1,,,,,,,,,,,,,,,*1E

$GPGSV,1,1,00,,,,,,,,,,,,,,,,*79

$GPRMC,,V,,,,,,,,,,N*53

$GPZDA,231839.00,28,10,2014,-07,00*42

$GPVTG,,,,,,,,,N*30

$GPGSA,A,1,,,,,,,,,,,,,,,*1E

$GPGSV,1,1,00,,,,,,,,,,,,,,,,*79

$GPRMC,,V,,,,,,,,,,N*53

$GPZDA,231840.00,28,10,2014,-07,00*4C

$GPVTG,,,,,,,,,N*30

$GPGSA,A,1,,,,,,,,,,,,,,,*1E

$GPGSV,1,1,00,,,,,,,,,,,,,,,,*79

$GPRMC,,V,,,,,,,,,,N*53

$GPZDA,231841.00,28,10,2014,-07,00*4D

$GPVTG,,,,,,,,,N*30

$GPGSA,A,1,,,,,,,,,,,,,,,*1E

$GPGSV,1,1,00,,,,,,,,,,,,,,,,*79

$GPRMC,,V,,,,,,,,,,N*53

$GPZDA,231842.00,28,10,2014,-07,00*4E

$GPVTG,,,,,,,,,N*30

$GPGSA,A,1,,,,,,,,,,,,,,,*1E

$GPGSV,1,1,00,,,,,,,,,,,,,,,,*79

$GPRMC,,V,,,,,,,,,,N*53

$GPZDA,231843.00,28,10,2014,-07,00*4F

$GPVTG,,,,,,,,,N*30

$GPGSA,A,1,,,,,,,,,,,,,,,*1E

$GPGSV,1,1,00,,,,,,,,,,,,,,,,*79

$GPRMC,,V,,,,,,,,,,N*53

$GPZDA,231844.00,28,10,2014,-07,00*48

$GPVTG,,,,,,,,,N*30

$GPGSA,A,1,,,,,,,,,,,,,,,*1E

$GPGSV,1,1,00,,,,,,,,,,,,,,,,*79

$GPRMC,,V,,,,,,,,,,N*53

$GPZDA,231845.00,28,10,2014,-07,00*49

$GPVTG,,,,,,,,,N*30

$GPGSA,A,1,,,,,,,,,,,,,,,*1E

$GPGSV,1,1,00,,,,,,,,,,,,,,,,*79

$GPRMC,,V,,,,,,,,,,N*53

$GPZDA,231846.00,28,10,2014,-07,00*4A

$GPVTG,,,,,,,,,N*30

$GPGSA,A,1,,,,,,,,,,,,,,,*1E

$GPGSV,1,1,00,,,,,,,,,,,,,,,,*79

$GPRMC,,V,,,,,,,,,,N*53

$GPZDA,231847.00,28,10,2014,-07,00*4B

$GPVTG,,,,,,,,,N*30

$GPGSA,A,1,,,,,,,,,,,,,,,*1E

$GPGSV,1,1,00,,,,,,,,,,,,,,,,*79

$GPRMC,,V,,,,,,,,,,N*53

$GPZDA,231848.00,28,10,2014,-07,00*44

$GPVTG,,,,,,,,,N*30

$GPGSA,A,1,,,,,,,,,,,,,,,*1E

$GPGSV,1,1,00,,,,,,,,,,,,,,,,*79

$GPRMC,,V,,,,,,,,,,N*53

$GPZDA,231849.00,28,10,2014,-07,00*45

$GPVTG,,,,,,,,,N*30

$GPGSA,A,1,,,,,,,,,,,,,,,*1E

$GPGSV,1,1,00,,,,,,,,,,,,,,,,*79

$GPRMC,,V,,,,,,,,,,N*53

$GPZDA,231850.00,28,10,2014,-07,00*4D

$GPVTG,,,,,,,,,N*30

$GPGSA,A,1,,,,,,,,,,,,,,,*1E

$GPGSV,1,1,00,,,,,,,,,,,,,,,,*79

$GPRMC,,V,,,,,,,,,,N*53

$GPZDA,231851.00,28,10,2014,-07,00*4C

$GPVTG,,,,,,,,,N*30

$GPGSA,A,1,,,,,,,,,,,,,,,*1E

$GPGSV,1,1,00,,,,,,,,,,,,,,,,*79

$GPRMC,,V,,,,,,,,,,N*53

$GPZDA,231852.00,28,10,2014,-07,00*4F

$GPVTG,,,,,,,,,N*30

$GPGSA,A,1,,,,,,,,,,,,,,,*1E

$GPGSV,1,1,00,,,,,,,,,,,,,,,,*79

$GPRMC,,V,,,,,,,,,,N*53

$GPZDA,231853.00,28,10,2014,-07,00*4E

$GPVTG,,,,,,,,,N*30

$GPGSA,A,1,,,,,,,,,,,,,,,*1E

$GPGSV,1,1,00,,,,,,,,,,,,,,,,*79

$GPRMC,,V,,,,,,,,,,N*53

$GPZDA,231854.00,28,10,2014,-07,00*49

$GPVTG,,,,,,,,,N*30

$GPGSA,A,1,,,,,,,,,,,,,,,*1E

$GPGSV,1,1,00,,,,,,,,,,,,,,,,*79

$GPRMC,,V,,,,,,,,,,N*53

$GPZDA,231855.00,28,10,2014,-07,00*48

$GPVTG,,,,,,,,,N*30

$GPGSA,A,1,,,,,,,,,,,,,,,*1E

$GPGSV,1,1,00,,,,,,,,,,,,,,,,*79

$GPRMC,,V,,,,,,,,,,N*53

$GPZDA,231856.00,28,10,2014,-07,00*4B

$GPVTG,,,,,,,,,N*30

$GPGSA,A,1,,,,,,,,,,,,,,,*1E

$GPGSV,1,1,00,,,,,,,,,,,,,,,,*79

$GPRMC,,V,,,,,,,,,,N*53

$GPZDA,231857.00,28,10,2014,-07,00*4A

$GPVTG,,,,,,,,,N*30

$GPGSA,A,1,,,,,,,,,,,,,,,*1E

$GPGSV,1,1,00,,,,,,,,,,,,,,,,*79

$GPRMC,,V,,,,,,,,,,N*53

$GPZDA,231858.00,28,10,2014,-07,00*45

$GPVTG,,,,,,,,,N*30

$GPGSA,A,1,,,,,,,,,,,,,,,*1E

$GPGSV,1,1,00,,,,,,,,,,,,,,,,*79

$GPRMC,,V,,,,,,,,,,N*53

$GPZDA,231859.00,28,10,2014,-07,00*44

$GPVTG,,,,,,,,,N*30

$GPGSA,A,1,,,,,,,,,,,,,,,*1E

$GPGSV,1,1,00,,,,,,,,,,,,,,,,*79

$GPRMC,,V,,,,,,,,,,N*53

$GPZDA,231900.00,28,10,2014,-07,00*49

$GPVTG,,,,,,,,,N*30

$GPGSA,A,1,,,,,,,,,,,,,,,*1E

$GPGSV,1,1,00,,,,,,,,,,,,,,,,*79

$GPRMC,,V,,,,,,,,,,N*53

$GPZDA,231901.00,28,10,2014,-07,00*48

$GPVTG,,,,,,,,,N*30

$GPGSA,A,1,,,,,,,,,,,,,,,*1E

$GPGSV,1,1,00,,,,,,,,,,,,,,,,*79

$GPRMC,,V,,,,,,,,,,N*53

$GPZDA,231902.00,28,10,2014,-07,00*4B

$GPVTG,,,,,,,,,N*30

$GPGSA,A,1,,,,,,,,,,,,,,,*1E

$GPGSV,1,1,00,,,,,,,,,,,,,,,,*79

$GPRMC,,V,,,,,,,,,,N*53

$GPZDA,231903.00,28,10,2014,-07,00*4A

$GPVTG,,,,,,,,,N*30

$GPGSA,A,1,,,,,,,,,,,,,,,*1E

$GPGSV,1,1,00,,,,,,,,,,,,,,,,*79

$GPRMC,,V,,,,,,,,,,N*53

$GPZDA,231904.00,28,10,2014,-07,00*4D

$GPVTG,,,,,,,,,N*30

$GPGSA,A,1,,,,,,,,,,,,,,,*1E

$GPGSV,1,1,00,,,,,,,,,,,,,,,,*79

$GPRMC,,V,,,,,,,,,,N*53

$GPZDA,231905.00,28,10,2014,-07,00*4C

$GPVTG,,,,,,,,,N*30

$GPGSA,A,1,,,,,,,,,,,,,,,*1E

$GPGSV,1,1,00,,,,,,,,,,,,,,,,*79

$GPRMC,,V,,,,,,,,,,N*53

$GPZDA,231906.00,28,10,2014,-07,00*4F

$GPVTG,,,,,,,,,N*30

$GPGSA,A,1,,,,,,,,,,,,,,,*1E

$GPGSV,1,1,00,,,,,,,,,,,,,,,,*79

$GPRMC,,V,,,,,,,,,,N*53

$GPZDA,231907.00,28,10,2014,-07,00*4E

$GPVTG,,,,,,,,,N*30

$GPGSA,A,1,,,,,,,,,,,,,,,*1E

$GPGSV,1,1,00,,,,,,,,,,,,,,,,*79

$GPRMC,,V,,,,,,,,,,N*53

$GPZDA,231908.00,28,10,2014,-07,00*41

$GPVTG,,,,,,,,,N*30

$GPGSA,A,1,,,,,,,,,,,,,,,*1E

$GPGSV,1,1,00,,,,,,,,,,,,,,,,*79

$GPRMC,,V,,,,,,,,,,N*53

$GPZDA,231909.00,28,10,2014,-07,00*40

$GPVTG,,,,,,,,,N*30

$GPGSA,A,1,,,,,,,,,,,,,,,*1E

$GPGSV,1,1,00,,,,,,,,,,,,,,,,*79

$GPRMC,,V,,,,,,,,,,N*53

$GPZDA,231910.00,28,10,2014,-07,00*48

$GPVTG,,,,,,,,,N*30

$GPGSA,A,3,18,19,21,22,27,,,,,,,,4.4,2.3,3.8*3F

$GPGSV,1,1,00,,,,,,,,,,,,,,,,*79

$GPRMC,231910.00,A,4434.0472403,N,12316.4860112,W,0.00,0.00,281014,0.00,E,A*1F

$GPZDA,231911.00,28,10,2014,-07,00*49

$GNVTG,,,,,,,,,N*2E

$GNGSA,A,3,18,19,21,22,27,,,,,,,,3.4,1.8,2.9*2E

$GNGSA,A,3,68,83,84,,,,,,,,,,3.4,1.8,2.9*20

$GPGSV,2,1,08,14,35,180,,15,22,046,,18,64,055,48,19,36,306,46*73

$GPGSV,2,2,08,21,49,113,45,22,72,273,51,24,15,088,,27,53,269,49*7B

$GLGSV,2,1,06,67,24,044,,68,74,356,48,69,40,244,,82,22,159,*68

$GLGSV,2,2,06,83,78,210,46,84,38,323,44,,,,,,,,*63

$GNRMC,231911.00,A,4434.0453176,N,12316.4868287,W,0.00,0.00,281014,0.00,E,A*03

$GPZDA,231912.00,28,10,2014,-07,00*4A

$GNVTG,106.2948,T,106.2948,M,0.002,N,0.004,K,A*3B

$GNGSA,A,3,18,19,21,22,27,,,,,,,,3.4,1.8,2.9*2E

$GNGSA,A,3,68,83,84,,,,,,,,,,3.4,1.8,2.9*20

$GPGSV,2,1,08,14,35,180,,15,22,046,,18,64,055,48,19,36,306,46*73

$GPGSV,2,2,08,21,49,113,45,22,72,273,51,24,15,088,,27,53,269,49*7B

$GLGSV,2,1,06,67,24,044,,68,74,356,48,69,40,244,,82,22,159,*68

$GLGSV,2,2,06,83,78,210,46,84,38,323,44,,,,,,,,*63

$GNRMC,231912.00,A,4434.0452888,N,12316.4867949,W,0.00,106.29,281014,0.00,E,A*03

$GPZDA,231913.00,28,10,2014,-07,00*4B

$GNVTG,182.5253,T,182.5253,M,0.016,N,0.030,K,A*39

$GNGSA,A,3,18,19,21,22,27,,,,,,,,3.4,1.8,2.9*2E

$GNGSA,A,3,68,83,84,,,,,,,,,,3.4,1.8,2.9*20

$GPGSV,2,1,08,14,35,180,,15,22,046,,18,64,055,48,19,36,306,47*72

$GPGSV,2,2,08,21,49,113,44,22,72,273,51,24,15,088,,27,53,269,49*7A

$GLGSV,2,1,06,67,24,044,,68,74,356,48,69,40,244,,82,22,159,*68

$GLGSV,2,2,06,83,78,210,46,84,38,323,44,,,,,,,,*63

$GNRMC,231913.00,A,4434.0452865,N,12316.4867774,W,0.02,182.53,281014,0.00,E,A*02

$GPZDA,231914.00,28,10,2014,-07,00*4C

$GNVTG,130.0408,T,130.0408,M,0.039,N,0.071,K,A*31

$GNGSA,A,3,18,19,21,22,27,,,,,,,,3.4,1.8,2.9*2E

$GNGSA,A,3,68,83,84,,,,,,,,,,3.4,1.8,2.9*20

$GPGSV,2,1,08,14,35,180,,15,22,046,,18,64,055,48,19,36,306,47*72

$GPGSV,2,2,08,21,49,113,45,22,72,273,51,24,15,088,,27,53,269,49*7B

$GLGSV,2,1,06,67,24,044,,68,74,356,47,69,40,244,,82,22,159,*67

$GLGSV,2,2,06,83,78,210,45,84,38,323,43,,,,,,,,*67

$GNRMC,231914.00,A,4434.0452760,N,12316.4867672,W,0.04,130.04,281014,0.00,E,A*05

$GPZDA,231915.00,28,10,2014,-07,00*4D

$GNVTG,35.8287,T,35.8287,M,0.012,N,0.022,K,A*3E

$GNGSA,A,3,18,19,21,22,27,,,,,,,,3.4,1.8,2.9*2E

$GNGSA,A,3,68,83,84,,,,,,,,,,3.4,1.8,2.9*20

$GPGSV,2,1,08,14,35,180,34,15,22,046,,18,64,055,48,19,36,306,48*7A

$GPGSV,2,2,08,21,49,113,46,22,72,273,50,24,15,088,,27,53,269,49*79

$GLGSV,2,1,06,67,24,044,,68,74,356,47,69,40,244,,82,22,159,*67

$GLGSV,2,2,06,83,78,210,45,84,38,323,43,,,,,,,,*67

$GNRMC,231915.00,A,4434.0452805,N,12316.4867591,W,0.01,35.83,281014,0.00,E,A*38

$GPZDA,231916.00,28,10,2014,-07,00*4E

$GNVTG,36.2354,T,36.2354,M,0.015,N,0.028,K,A*33

$GNGSA,A,3,18,19,21,22,27,,,,,,,,3.4,1.8,2.9*2E

$GNGSA,A,3,68,83,84,,,,,,,,,,3.4,1.8,2.9*20

$GPGSV,2,1,08,14,35,180,35,15,22,046,,18,64,055,47,19,36,306,47*7B

$GPGSV,2,2,08,21,48,114,45,22,72,273,50,24,15,088,38,27,53,269,49*77

$GLGSV,2,1,06,67,24,044,,68,74,356,47,69,40,244,,82,22,159,*67

$GLGSV,2,2,06,83,78,210,44,84,38,323,42,,,,,,,,*67

$GNRMC,231916.00,A,4434.0453018,N,12316.4867700,W,0.02,36.24,281014,0.00,E,A*39

$GPZDA,231917.01,28,10,2014,-07,00*4E

$GNVTG,309.9695,T,309.9695,M,0.008,N,0.015,K,A*31

$GNGSA,A,3,18,19,21,22,27,,,,,,,,3.4,1.8,2.9*2E

$GNGSA,A,3,68,83,84,,,,,,,,,,3.4,1.8,2.9*20

$GPGSV,2,1,08,14,35,180,35,15,22,046,,18,64,055,47,19,36,306,47*7B

$GPGSV,2,2,08,21,48,114,45,22,72,273,50,24,15,088,37,27,53,269,49*78

$GLGSV,2,1,06,67,24,044,,68,74,356,49,69,40,244,,82,22,159,*69

$GLGSV,2,2,06,83,78,210,47,84,38,323,44,,,,,,,,*62

$GNRMC,231917.00,A,4434.0453108,N,12316.4867754,W,0.01,309.97,281014,0.00,E,A*0D

$GPZDA,231918.00,28,10,2014,-07,00*40

$GNVTG,334.2979,T,334.2979,M,0.018,N,0.034,K,A*33

$GNGSA,A,3,18,19,21,22,27,,,,,,,,3.4,1.8,2.9*2E

$GNGSA,A,3,68,83,84,,,,,,,,,,3.4,1.8,2.9*20

$GPGSV,2,1,08,14,35,180,35,15,22,046,,18,64,055,46,19,36,306,46*7B

$GPGSV,2,2,08,21,48,114,45,22,72,273,50,24,15,088,36,27,53,269,48*78

$GLGSV,2,1,06,67,24,044,,68,74,356,47,69,40,244,,82,22,159,*67

$GLGSV,2,2,06,83,78,210,44,84,38,323,42,,,,,,,,*67

$GNRMC,231918.00,A,4434.0453365,N,12316.4867817,W,0.02,334.30,281014,0.00,E,A*03

$GPZDA,231919.00,28,10,2014,-07,00*41

$GNVTG,340.4198,T,340.4198,M,0.013,N,0.024,K,A*39

$GNGSA,A,3,18,19,21,22,27,,,,,,,,3.4,1.8,2.9*2E

$GNGSA,A,3,68,83,84,,,,,,,,,,3.4,1.8,2.9*20

$GPGSV,2,1,08,14,35,180,35,15,22,046,,18,64,055,47,19,36,306,46*7A

$GPGSV,2,2,08,21,48,114,45,22,72,273,50,24,15,088,37,27,53,269,48*79

$GLGSV,2,1,06,67,24,044,,68,74,356,47,69,40,244,,82,22,159,*67

$GLGSV,2,2,06,83,78,210,45,84,38,323,43,,,,,,,,*67

$GNRMC,231919.00,A,4434.0453586,N,12316.4867853,W,0.01,340.42,281014,0.00,E,A*0C

$GPZDA,231920.00,28,10,2014,-07,00*4B

$GNVTG,221.8267,T,221.8267,M,0.007,N,0.014,K,A*3F

$GNGSA,A,3,18,19,21,22,27,,,,,,,,3.4,1.8,2.9*2E

$GNGSA,A,3,68,83,84,,,,,,,,,,3.4,1.8,2.9*20

$GPGSV,2,1,08,14,35,180,37,15,22,046,,18,64,055,47,19,36,306,46*78

$GPGSV,2,2,08,21,48,114,45,22,72,273,50,24,15,088,37,27,53,269,49*78

$GLGSV,2,1,06,67,24,044,,68,74,356,48,69,40,244,,82,22,159,*68

$GLGSV,2,2,06,83,78,210,46,84,38,323,44,,,,,,,,*63

$GNRMC,231920.00,A,4434.0453579,N,12316.4867759,W,0.01,221.83,281014,0.00,E,A*08

$GPZDA,231921.00,28,10,2014,-07,00*4A

$GNVTG,45.1285,T,45.1285,M,0.016,N,0.029,K,A*31

$GNGSA,A,3,18,19,21,22,27,,,,,,,,3.4,1.8,2.9*2E

$GNGSA,A,3,68,83,84,,,,,,,,,,3.4,1.8,2.9*20

$GPGSV,2,1,08,14,35,180,40,15,22,046,,18,64,055,48,19,36,306,46*77

$GPGSV,2,2,08,21,48,114,46,22,72,273,50,24,15,088,40,27,53,268,49*7A

$GLGSV,2,1,06,67,24,044,,68,74,356,47,69,40,244,,82,22,159,*67

$GLGSV,2,2,06,83,78,210,45,84,38,323,42,,,,,,,,*66

$GNRMC,231921.00,A,4434.0453716,N,12316.4867774,W,0.02,45.13,281014,0.00,E,A*37

$GPZDA,231922.00,28,10,2014,-07,00*49

$GNVTG,183.1971,T,183.1971,M,0.047,N,0.087,K,A*31

$GNGSA,A,3,18,19,21,22,27,,,,,,,,3.4,1.8,2.9*2E

$GNGSA,A,3,68,83,84,,,,,,,,,,3.4,1.8,2.9*20

$GPGSV,2,1,08,14,35,180,38,15,22,046,,18,64,055,48,19,36,306,46*78

$GPGSV,2,2,08,21,48,114,45,22,72,273,50,24,15,088,40,27,53,268,50*71

$GLGSV,2,1,06,67,24,044,,68,74,356,48,69,40,244,,82,22,159,*68

$GLGSV,2,2,06,83,78,210,45,84,38,323,42,,,,,,,,*66

$GNRMC,231922.00,A,4434.0453717,N,12316.4867887,W,0.05,183.20,281014,0.00,E,A*0A

$GPZDA,231923.00,28,10,2014,-07,00*48

$GNVTG,0.5701,T,0.5701,M,0.066,N,0.123,K,A*3D

$GNGSA,A,3,18,19,21,22,27,,,,,,,,3.4,1.8,2.9*2E

$GNGSA,A,3,68,83,84,,,,,,,,,,3.4,1.8,2.9*20

$GPGSV,2,1,08,14,35,180,37,15,22,046,,18,64,055,48,19,36,306,47*76

$GPGSV,2,2,08,21,48,114,46,22,72,273,50,24,15,088,38,27,53,268,50*7D

$GLGSV,2,1,06,67,24,044,,68,74,356,48,69,40,244,,82,22,159,*68

$GLGSV,2,2,06,83,78,210,46,84,38,323,44,,,,,,,,*63

$GNRMC,231923.00,A,4434.0453940,N,12316.4867862,W,0.07,0.57,281014,0.00,E,A*04

$GPZDA,231924.00,28,10,2014,-07,00*4F

$GNVTG,173.3893,T,173.3893,M,0.035,N,0.064,K,A*39

$GNGSA,A,3,18,19,21,22,27,,,,,,,,3.4,1.8,2.9*2E

$GNGSA,A,3,68,83,84,,,,,,,,,,3.4,1.8,2.9*20

$GPGSV,2,1,08,14,35,180,38,15,22,046,,18,64,055,48,19,36,306,47*79

$GPGSV,2,2,08,21,48,114,45,22,72,273,50,24,15,088,40,27,53,268,50*71

$GLGSV,2,1,06,67,24,044,,68,74,356,48,69,40,244,,82,22,159,*68

$GLGSV,2,2,06,83,78,210,46,84,38,323,43,,,,,,,,*64

$GNRMC,231924.00,A,4434.0453927,N,12316.4867617,W,0.03,173.39,281014,0.00,E,A*07

$GPZDA,231925.00,28,10,2014,-07,00*4E

$GNVTG,163.9725,T,163.9725,M,0.030,N,0.056,K,A*3D

$GNGSA,A,3,18,19,21,22,27,,,,,,,,3.4,1.8,2.9*2E

$GNGSA,A,3,68,83,84,,,,,,,,,,3.4,1.8,2.9*20

$GPGSV,2,1,08,14,35,180,33,15,22,046,,18,64,055,48,19,36,306,47*72

$GPGSV,2,2,08,21,48,114,45,22,72,273,50,24,15,088,41,27,53,268,49*78

$GLGSV,2,1,06,67,24,044,,68,74,356,48,69,40,244,,82,22,159,*68

$GLGSV,2,2,06,83,78,210,46,84,38,323,42,,,,,,,,*65

$GNRMC,231925.00,A,4434.0453775,N,12316.4867473,W,0.03,163.97,281014,0.00,E,A*0A

$GPZDA,231926.00,28,10,2014,-07,00*4D

$GNVTG,313.7170,T,313.7170,M,0.017,N,0.031,K,A*39

$GNGSA,A,3,18,19,21,22,27,,,,,,,,3.4,1.8,2.9*2E

$GNGSA,A,3,68,83,84,,,,,,,,,,3.4,1.8,2.9*20

$GPGSV,2,1,08,14,35,180,33,15,22,046,,18,64,055,47,19,36,306,47*7D

$GPGSV,2,2,08,21,48,114,45,22,72,273,50,24,15,088,40,27,53,268,49*79

$GLGSV,2,1,06,67,24,044,,68,74,356,48,69,40,244,,82,22,159,*68

$GLGSV,2,2,06,83,78,210,45,84,38,323,42,,,,,,,,*66

$GNRMC,231926.00,A,4434.0453800,N,12316.4867538,W,0.02,313.72,281014,0.00,E,A*05

$GPZDA,231927.00,28,10,2014,-07,00*4C

$GNVTG,344.6019,T,344.6019,M,0.023,N,0.043,K,A*3B

$GNGSA,A,3,18,19,21,22,27,,,,,,,,3.4,1.8,2.9*2E

$GNGSA,A,3,68,83,84,,,,,,,,,,3.4,1.8,2.9*20

$GPGSV,2,1,08,14,35,180,35,15,22,046,,18,64,055,47,19,36,306,47*7B

$GPGSV,2,2,08,21,48,114,45,22,72,273,50,24,15,088,40,27,53,268,49*79

$GLGSV,2,1,06,67,24,044,,68,74,356,50,69,40,244,,82,22,159,*61

$GLGSV,2,2,06,83,78,210,47,84,39,323,45,,,,,,,,*62

$GNRMC,231927.00,A,4434.0453831,N,12316.4867494,W,0.02,344.60,281014,0.00,E,A*00

$GPZDA,231928.00,28,10,2014,-07,00*43

$GNVTG,132.6636,T,132.6636,M,0.033,N,0.061,K,A*3A

$GNGSA,A,3,18,19,21,22,27,,,,,,,,3.4,1.8,2.9*2E

$GNGSA,A,3,68,83,84,,,,,,,,,,3.4,1.8,2.9*20

$GPGSV,2,1,08,14,35,180,31,15,22,046,,18,64,055,48,19,36,306,47*70

$GPGSV,2,2,08,21,48,114,44,22,72,273,50,24,15,088,41,27,53,268,49*79

$GLGSV,2,1,06,67,24,044,,68,74,356,49,69,40,244,,82,22,159,*69

$GLGSV,2,2,06,83,78,210,46,84,39,323,43,,,,,,,,*65

$GNRMC,231928.00,A,4434.0453853,N,12316.4867386,W,0.03,132.66,281014,0.00,E,A*0B

$GPZDA,231929.00,28,10,2014,-07,00*42

$GNVTG,0.9991,T,0.9991,M,0.025,N,0.046,K,A*38

$GNGSA,A,3,18,19,21,22,27,,,,,,,,3.4,1.8,2.9*2E

$GNGSA,A,3,68,83,84,,,,,,,,,,3.4,1.8,2.9*20

$GPGSV,2,1,08,14,35,180,28,15,22,046,,18,64,055,48,19,36,306,47*78

$GPGSV,2,2,08,21,48,114,44,22,72,273,50,24,15,088,41,27,53,268,49*79

$GLGSV,2,1,06,67,24,044,,68,74,356,48,69,40,244,,82,22,159,*68

$GLGSV,2,2,06,83,78,210,45,84,39,323,42,,,,,,,,*67

$GNRMC,231929.00,A,4434.0454051,N,12316.4867359,W,0.02,1.00,281014,0.00,E,A*05

$GPZDA,231930.00,28,10,2014,-07,00*4A

$GNVTG,9.8753,T,9.8753,M,0.025,N,0.046,K,A*38

$GNGSA,A,3,18,19,21,22,27,,,,,,,,3.4,1.8,2.9*2E

$GNGSA,A,3,68,83,84,,,,,,,,,,3.4,1.8,2.9*20

$GPGSV,2,1,08,14,35,180,31,15,22,046,,18,64,055,48,19,36,306,47*70

$GPGSV,2,2,08,21,48,114,44,22,72,273,50,24,15,088,41,27,53,268,49*79

$GLGSV,2,1,06,67,24,044,,68,74,356,47,69,40,244,,82,21,159,*64

$GLGSV,2,2,06,83,78,210,45,84,39,323,42,,,,,,,,*67

$GNRMC,231930.00,A,4434.0454232,N,12316.4867293,W,0.03,9.88,281014,0.00,E,A*04

$GPZDA,231931.00,28,10,2014,-07,00*4B

$GNVTG,104.9402,T,104.9402,M,0.019,N,0.035,K,D*36

$GNGSA,A,3,18,19,21,22,27,,,,,,,,3.4,1.8,2.9*2E

$GNGSA,A,3,68,83,84,,,,,,,,,,3.4,1.8,2.9*20

$GPGSV,2,1,08,14,35,180,32,15,22,046,,18,64,055,48,19,36,306,47*73

$GPGSV,2,2,08,21,48,114,43,22,72,273,50,24,15,088,41,27,53,268,49*7E

$GLGSV,2,1,06,67,24,044,,68,74,356,47,69,40,244,,82,21,159,*64

$GLGSV,2,2,06,83,78,210,44,84,39,323,42,,,,,,,,*66

$GNRMC,231931.00,A,4434.0457507,N,12316.4848037,W,0.02,104.94,281014,0.00,E,D*03

$GPZDA,231932.00,28,10,2014,-07,00*48

$GNVTG,222.6271,T,222.6271,M,0.029,N,0.053,K,D*35

$GNGSA,A,3,18,19,21,22,27,,,,,,,,3.4,1.8,2.9*2E

$GNGSA,A,3,68,83,84,,,,,,,,,,3.4,1.8,2.9*20

$GPGSV,2,1,08,14,35,180,29,15,22,046,,18,64,055,48,19,36,306,48*76

$GPGSV,2,2,08,21,48,114,43,22,72,273,50,24,15,088,41,27,53,268,49*7E

$GLGSV,2,1,06,67,24,044,,68,74,356,48,69,40,244,,82,21,159,*6B

$GLGSV,2,2,06,83,78,210,45,84,39,323,42,,,,,,,,*67

$GNRMC,231932.00,A,4434.0457447,N,12316.4848098,W,0.03,222.63,281014,0.00,E,D*0E

$GPZDA,231933.00,28,10,2014,-07,00*49

$GNVTG,89.8638,T,89.8638,M,0.006,N,0.012,K,D*3D

$GNGSA,A,3,18,19,21,22,27,,,,,,,,3.4,1.8,2.9*2E

$GNGSA,A,3,68,83,84,,,,,,,,,,3.4,1.8,2.9*20

$GPGSV,2,1,08,14,35,180,,15,22,046,,18,64,055,48,19,36,306,47*72

$GPGSV,2,2,08,21,48,114,44,22,72,273,50,24,15,088,41,27,53,268,49*79

$GLGSV,2,1,06,67,24,044,,68,74,356,48,69,40,244,,82,21,159,*6B

$GLGSV,2,2,06,83,78,210,45,84,39,323,42,,,,,,,,*67

$GNRMC,231933.00,A,4434.0457468,N,12316.4848046,W,0.01,89.86,281014,0.00,E,D*3B

$GPZDA,231934.00,28,10,2014,-07,00*4E

$GNVTG,116.9050,T,116.9050,M,0.006,N,0.010,K,D*3F

$GNGSA,A,3,18,19,21,22,27,,,,,,,,3.4,1.8,2.9*2E

$GNGSA,A,3,68,83,84,,,,,,,,,,3.4,1.8,2.9*20

$GPGSV,2,1,08,14,35,180,,15,22,046,,18,64,055,48,19,36,306,47*72

$GPGSV,2,2,08,21,48,114,43,22,72,273,50,24,15,088,42,27,53,268,49*7D

$GLGSV,2,1,06,67,24,044,,68,74,356,47,69,40,244,,82,21,159,*64

$GLGSV,2,2,06,83,78,210,44,84,39,323,42,,,,,,,,*66

$GNRMC,231934.00,A,4434.0457491,N,12316.4848008,W,0.01,116.90,281014,0.00,E,D*00

$GPZDA,231935.00,28,10,2014,-07,00*4F

$GNVTG,343.1849,T,343.1849,M,0.030,N,0.055,K,D*3B

$GNGSA,A,3,18,19,21,22,27,,,,,,,,3.4,1.8,2.9*2E

$GNGSA,A,3,68,83,84,,,,,,,,,,3.4,1.8,2.9*20

$GPGSV,2,1,08,14,35,180,,15,22,046,,18,64,055,48,19,36,306,47*72

$GPGSV,2,2,08,21,48,114,44,22,72,273,50,24,15,088,41,27,53,268,49*79

$GLGSV,2,1,06,67,24,044,,68,74,356,47,69,40,244,,82,21,159,*64

$GLGSV,2,2,06,83,78,210,45,84,39,323,42,,,,,,,,*67

$GNRMC,231935.00,A,4434.0457620,N,12316.4848011,W,0.03,343.18,281014,0.00,E,D*01

$GPZDA,231936.00,28,10,2014,-07,00*4C

$GNVTG,293.0821,T,293.0821,M,0.014,N,0.026,K,D*39

$GNGSA,A,3,18,19,21,22,27,,,,,,,,3.4,1.8,2.9*2E

$GNGSA,A,3,68,83,84,,,,,,,,,,3.4,1.8,2.9*20

$GPGSV,2,1,08,14,35,180,,15,22,046,,18,64,055,49,19,36,306,47*73

$GPGSV,2,2,08,21,48,114,43,22,72,273,50,24,15,088,42,27,53,268,49*7D

$GLGSV,2,1,06,67,24,044,,68,74,356,47,69,40,244,,82,21,159,*64

$GLGSV,2,2,06,83,78,209,44,84,39,323,42,,,,,,,,*6E

$GNRMC,231936.00,A,4434.0457680,N,12316.4848050,W,0.01,293.08,281014,0.00,E,D*02

$GPZDA,231937.00,28,10,2014,-07,00*4D

$GNVTG,95.1846,T,95.1846,M,0.012,N,0.021,K,D*38

$GNGSA,A,3,18,19,21,22,27,,,,,,,,3.4,1.8,2.9*2E

$GNGSA,A,3,68,83,84,,,,,,,,,,3.4,1.8,2.9*20

$GPGSV,2,1,08,14,35,180,,15,22,046,,18,64,055,49,19,36,306,47*73

$GPGSV,2,2,08,21,48,114,43,22,72,273,50,24,15,088,42,27,53,268,49*7D

$GLGSV,2,1,06,67,24,044,,68,74,356,47,69,40,244,,82,21,159,*64

$GLGSV,2,2,06,83,78,209,44,84,39,323,42,,,,,,,,*6E

$GNRMC,231937.00,A,4434.0457729,N,12316.4847993,W,0.01,95.18,281014,0.00,E,D*3D

$GPZDA,231938.00,28,10,2014,-07,00*42

$GNVTG,176.7901,T,176.7901,M,0.023,N,0.042,K,D*3F

$GNGSA,A,3,18,19,21,22,27,,,,,,,,3.4,1.7,2.9*21

$GNGSA,A,3,68,83,84,,,,,,,,,,3.4,1.7,2.9*2F

$GPGSV,2,1,08,14,35,180,,15,22,046,,18,64,055,49,19,36,306,47*73

$GPGSV,2,2,08,21,48,114,43,22,72,273,50,24,15,088,42,27,53,268,49*7D

$GLGSV,2,1,06,67,24,044,,68,74,356,45,69,40,244,,82,21,159,*66

$GLGSV,2,2,06,83,78,209,43,84,39,323,40,,,,,,,,*6B

$GNRMC,231938.00,A,4434.0457714,N,12316.4847980,W,0.02,176.79,281014,0.00,E,D*06

$GPZDA,231939.00,28,10,2014,-07,00*43

$GNVTG,25.4241,T,25.4241,M,0.007,N,0.014,K,D*3A

$GNGSA,A,3,18,19,21,22,27,,,,,,,,3.4,1.7,2.9*21

$GNGSA,A,3,68,83,84,,,,,,,,,,3.4,1.7,2.9*2F

$GPGSV,2,1,08,14,35,180,,15,22,046,,18,64,055,49,19,36,306,47*73

$GPGSV,2,2,08,21,48,114,43,22,72,273,50,24,15,088,42,27,53,268,49*7D

$GLGSV,2,1,06,67,24,044,,68,74,356,47,69,40,244,,82,21,159,*64

$GLGSV,2,2,06,83,78,209,44,84,39,323,42,,,,,,,,*6E

$GNRMC,231939.00,A,4434.0457777,N,12316.4847947,W,0.01,25.42,281014,0.00,E,D*35

$GPZDA,231940.00,28,10,2014,-07,00*4D

$GNVTG,354.3757,T,354.3757,M,0.013,N,0.023,K,D*3B

$GNGSA,A,3,18,19,21,22,27,,,,,,,,3.4,1.7,2.9*21

$GNGSA,A,3,68,83,84,,,,,,,,,,3.4,1.7,2.9*2F

$GPGSV,2,1,08,14,35,180,,15,22,046,,18,64,055,49,19,36,306,46*72

$GPGSV,2,2,08,21,48,114,43,22,72,273,50,24,15,088,41,27,53,268,49*7E

$GLGSV,2,1,06,67,24,044,,68,74,356,46,69,40,244,,82,21,159,*65

$GLGSV,2,2,06,83,78,209,44,84,39,323,42,,,,,,,,*6E

$GNRMC,231940.00,A,4434.0457853,N,12316.4847933,W,0.01,354.38,281014,0.00,E,D*09

$GPZDA,231941.00,28,10,2014,-07,00*4C

$GNVTG,351.6827,T,351.6827,M,0.024,N,0.045,K,D*3F

$GNGSA,A,3,18,19,21,22,27,,,,,,,,3.4,1.7,2.9*21

$GNGSA,A,3,68,83,84,,,,,,,,,,3.4,1.7,2.9*2F

$GPGSV,2,1,08,14,35,180,,15,22,046,,18,64,055,49,19,36,306,46*72

$GPGSV,2,2,08,21,48,114,43,22,72,273,50,24,15,088,41,27,53,268,49*7E

$GLGSV,2,1,06,67,24,044,,68,74,356,48,69,40,244,,82,21,159,*6B

$GLGSV,2,2,06,83,78,209,45,84,39,323,43,,,,,,,,*6E

$GNRMC,231941.00,A,4434.0457953,N,12316.4847941,W,0.02,351.68,281014,0.00,E,D*0F

$GPZDA,231942.00,28,10,2014,-07,00*4F

$GNVTG,166.8411,T,166.8411,M,0.024,N,0.044,K,D*3E

$GNGSA,A,3,18,19,21,22,27,,,,,,,,3.4,1.7,2.9*21

$GNGSA,A,3,68,83,84,,,,,,,,,,3.4,1.7,2.9*2F

$GPGSV,2,1,08,14,35,180,,15,22,046,,18,64,055,49,19,36,306,46*72

$GPGSV,2,2,08,21,48,114,44,22,72,273,50,24,15,088,41,27,53,268,49*79

$GLGSV,2,1,06,67,24,044,,68,74,356,47,69,40,244,,82,21,159,*64

$GLGSV,2,2,06,83,78,209,45,84,39,323,42,,,,,,,,*6F

$GNRMC,231942.00,A,4434.0457930,N,12316.4847911,W,0.02,166.84,281014,0.00,E,D*08

$GPZDA,231943.00,28,10,2014,-07,00*4E

$GNVTG,163.8510,T,163.8510,M,0.022,N,0.041,K,D*3D

$GNGSA,A,3,18,19,21,22,27,,,,,,,,3.4,1.7,2.9*21

$GNGSA,A,3,68,83,84,,,,,,,,,,3.4,1.7,2.9*2F

$GPGSV,2,1,08,14,35,180,,15,22,046,,18,64,055,48,19,36,306,47*72

$GPGSV,2,2,08,21,48,114,45,22,72,273,50,24,15,088,41,27,53,268,49*78

$GLGSV,2,1,06,67,24,044,,68,74,356,49,69,40,244,,82,21,159,*6A

$GLGSV,2,2,06,83,78,209,46,84,39,323,43,,,,,,,,*6D

$GNRMC,231943.00,A,4434.0457915,N,12316.4847882,W,0.02,163.85,281014,0.00,E,D*01

$GPZDA,231944.00,28,10,2014,-07,00*49

$GNVTG,181.1521,T,181.1521,M,0.022,N,0.041,K,D*3D

$GNGSA,A,3,18,19,21,22,27,,,,,,,,3.4,1.7,2.9*21

$GNGSA,A,3,68,83,84,,,,,,,,,,3.4,1.7,2.9*2F

$GPGSV,2,1,08,14,35,180,,15,22,046,,18,63,055,48,19,36,306,46*74

$GPGSV,2,2,08,21,48,114,44,22,72,273,50,24,15,088,41,27,53,268,48*78

$GLGSV,2,1,06,67,24,044,,68,74,357,48,69,40,244,,82,21,159,*6A

$GLGSV,2,2,06,83,78,209,46,84,39,323,43,,,,,,,,*6D

$GNRMC,231944.00,A,4434.0457891,N,12316.4847883,W,0.02,181.15,281014,0.00,E,D*0F

$GPZDA,231945.00,28,10,2014,-07,00*48

$GNVTG,292.3850,T,292.3850,M,0.023,N,0.043,K,D*3E

$GNGSA,A,3,18,19,21,22,27,,,,,,,,3.4,1.7,2.9*21

$GNGSA,A,3,68,83,84,,,,,,,,,,3.4,1.7,2.9*2F

$GPGSV,2,1,08,14,35,180,,15,22,046,,18,63,055,47,19,36,306,46*7B

$GPGSV,2,2,08,21,48,114,44,22,72,273,50,24,15,088,40,27,53,268,47*76

$GLGSV,2,1,06,67,24,044,,68,74,357,47,69,40,244,,82,21,159,*65

$GLGSV,2,2,06,83,78,209,45,84,39,323,42,,,,,,,,*6F

$GNRMC,231945.00,A,4434.0457950,N,12316.4847978,W,0.02,292.39,281014,0.00,E,D*08

$GPZDA,231946.00,28,10,2014,-07,00*4B

$GNVTG,23.9210,T,23.9210,M,0.024,N,0.044,K,D*3E

$GNGSA,A,3,18,19,21,22,27,,,,,,,,3.4,1.7,2.9*21

$GNGSA,A,3,68,83,84,,,,,,,,,,3.4,1.7,2.9*2F

$GPGSV,2,1,08,14,35,180,,15,22,046,,18,63,055,48,19,36,306,47*75

$GPGSV,2,2,08,21,48,114,44,22,72,273,51,24,15,088,41,27,53,268,49*78

$GLGSV,2,1,06,67,24,044,,68,74,357,48,69,40,244,,82,21,159,*6A

$GLGSV,2,2,06,83,78,209,44,84,39,323,42,,,,,,,,*6E

$GNRMC,231946.00,A,4434.0458027,N,12316.4847947,W,0.02,23.92,281014,0.00,E,D*38

$GPZDA,231947.00,28,10,2014,-07,00*4A

$GNVTG,237.6772,T,237.6772,M,0.010,N,0.018,K,D*30

$GNGSA,A,3,18,19,21,22,27,,,,,,,,3.4,1.7,2.9*21

$GNGSA,A,3,68,83,84,,,,,,,,,,3.4,1.7,2.9*2F

$GPGSV,2,1,08,14,35,180,,15,22,046,,18,63,055,48,19,36,306,46*74

$GPGSV,2,2,08,21,48,114,44,22,72,273,50,24,15,088,40,27,53,268,47*76

$GLGSV,2,1,06,67,24,044,,68,74,357,48,69,40,244,,82,21,159,*6A

$GLGSV,2,2,06,83,78,209,44,84,39,323,42,,,,,,,,*6E

$GNRMC,231947.00,A,4434.0458029,N,12316.4847977,W,0.01,237.68,281014,0.00,E,D*05

$GPZDA,231948.00,28,10,2014,-07,00*45

$GNVTG,155.6700,T,155.6700,M,0.030,N,0.056,K,D*38

$GNGSA,A,3,18,19,21,22,27,,,,,,,,3.4,1.7,2.9*21

$GNGSA,A,3,68,83,84,,,,,,,,,,3.4,1.7,2.9*2F

$GPGSV,2,1,08,14,35,180,,15,22,046,,18,63,055,48,19,36,306,47*75

$GPGSV,2,2,08,21,48,114,44,22,72,274,50,24,15,088,41,27,53,268,46*71

$GLGSV,2,1,06,67,24,044,,68,74,357,48,69,40,244,,82,21,159,*6A

$GLGSV,2,2,06,83,77,209,45,84,39,323,42,,,,,,,,*60

$GNRMC,231948.00,A,4434.0457964,N,12316.4847933,W,0.03,155.67,281014,0.00,E,D*0F

$GPZDA,231949.00,28,10,2014,-07,00*44

$GNVTG,164.0787,T,164.0787,M,0.016,N,0.030,K,D*3C

$GNGSA,A,3,18,19,21,22,27,,,,,,,,3.4,1.7,2.9*21

$GNGSA,A,3,68,83,84,,,,,,,,,,3.4,1.7,2.9*2F

$GPGSV,2,1,08,14,35,180,,15,22,046,,18,63,055,48,19,36,306,48*7A

$GPGSV,2,2,08,21,48,114,44,22,72,274,51,24,15,088,41,27,53,268,47*71

$GLGSV,2,1,06,67,24,044,,68,74,357,48,69,40,244,,82,21,159,*6A

$GLGSV,2,2,06,83,77,209,44,84,39,323,41,,,,,,,,*62

$GNRMC,231949.00,A,4434.0457938,N,12316.4847914,W,0.02,164.08,281014,0.00,E,D*08

$GPZDA,231950.00,28,10,2014,-07,00*4C

$GNVTG,13.8502,T,13.8502,M,0.018,N,0.033,K,D*31

$GNGSA,A,3,18,19,21,22,27,,,,,,,,3.4,1.7,2.9*21

$GNGSA,A,3,68,83,84,,,,,,,,,,3.4,1.7,2.9*2F

$GPGSV,2,1,08,14,35,180,,15,22,046,,18,63,055,49,19,36,306,48*7B

$GPGSV,2,2,08,21,48,114,45,22,72,274,51,24,15,088,42,27,53,268,48*7C

$GLGSV,2,1,06,67,24,044,,68,74,357,47,69,40,244,,82,21,159,*65

$GLGSV,2,2,06,83,77,209,44,84,39,323,41,,,,,,,,*62

$GNRMC,231950.00,A,4434.0458001,N,12316.4847897,W,0.02,13.85,281014,0.00,E,D*32

$GPZDA,231951.00,28,10,2014,-07,00*4D

$GNVTG,334.1414,T,334.1414,M,0.036,N,0.067,K,D*3C

$GNGSA,A,3,18,19,21,22,24,27,,,,,,,2.4,1.6,1.8*25

$GNGSA,A,3,68,83,84,,,,,,,,,,2.4,1.6,1.8*2D

$GPGSV,2,1,08,14,35,180,,15,22,046,,18,63,055,48,19,36,306,47*75

$GPGSV,2,2,08,21,48,114,45,22,72,274,51,24,15,087,41,27,53,268,47*7F

$GLGSV,2,1,06,67,24,044,,68,74,357,48,69,40,244,,82,21,159,*6A

$GLGSV,2,2,06,83,77,209,45,84,39,323,42,,,,,,,,*60

$GNRMC,231951.00,A,4434.0458164,N,12316.4847914,W,0.04,334.14,281014,0.00,E,D*03

$GPZDA,231952.00,28,10,2014,-07,00*4E

$GNVTG,71.7662,T,71.7662,M,0.018,N,0.034,K,D*36

$GNGSA,A,3,18,19,21,22,24,27,,,,,,,2.4,1.6,1.8*25

$GNGSA,A,3,68,83,84,,,,,,,,,,2.4,1.6,1.8*2D

$GPGSV,2,1,08,14,35,180,,15,22,046,,18,63,056,49,19,36,306,47*77

$GPGSV,2,2,08,21,48,114,44,22,72,274,51,24,15,087,41,27,53,268,48*71

$GLGSV,2,1,06,67,24,044,,68,74,357,48,69,40,244,,82,21,159,*6A

$GLGSV,2,2,06,83,77,209,45,84,39,323,43,,,,,,,,*61

$GNRMC,231952.00,A,4434.0458245,N,12316.4847847,W,0.02,71.77,281014,0.00,E,D*36

$GPZDA,231953.00,28,10,2014,-07,00*4F

$GNVTG,200.7680,T,200.7680,M,0.022,N,0.042,K,D*3E

$GNGSA,A,3,18,19,21,22,24,27,,,,,,,2.4,1.6,1.8*25

$GNGSA,A,3,68,83,84,,,,,,,,,,2.4,1.6,1.8*2D

$GPGSV,2,1,08,14,35,180,,15,22,046,,18,63,056,48,19,36,306,47*76

$GPGSV,2,2,08,21,48,114,44,22,72,274,50,24,15,087,40,27,53,268,47*7E

$GLGSV,2,1,06,67,24,044,,68,74,357,49,69,40,244,,82,21,159,*6B

$GLGSV,2,2,06,83,77,209,45,84,39,323,43,,,,,,,,*61

$GNRMC,231953.00,A,4434.0458238,N,12316.4847867,W,0.02,200.77,281014,0.00,E,D*0B

$GPZDA,231954.00,28,10,2014,-07,00*48

$GNVTG,192.8978,T,192.8978,M,0.024,N,0.044,K,D*3E

$GNGSA,A,3,18,19,21,22,24,27,,,,,,,2.4,1.6,1.8*25

$GNGSA,A,3,68,83,84,,,,,,,,,,2.4,1.6,1.8*2D

$GPGSV,2,1,08,14,35,180,,15,22,046,,18,63,056,48,19,36,306,47*76

$GPGSV,2,2,08,21,48,114,44,22,72,274,50,24,15,087,41,27,53,268,47*7F

$GLGSV,2,1,06,67,24,044,,68,74,357,49,69,40,244,,82,21,159,*6B

$GLGSV,2,2,06,83,77,209,45,84,39,323,43,,,,,,,,*61

$GNRMC,231954.00,A,4434.0458247,N,12316.4847870,W,0.02,192.90,281014,0.00,E,D*03

$GPZDA,231955.01,28,10,2014,-07,00*48

$GNVTG,159.0744,T,159.0744,M,0.029,N,0.054,K,D*32

$GNGSA,A,3,18,19,21,22,24,27,,,,,,,2.4,1.6,1.8*25

$GNGSA,A,3,68,83,84,,,,,,,,,,2.4,1.6,1.8*2D

$GPGSV,2,1,08,14,35,180,,15,22,046,,18,63,056,47,19,36,306,46*78

$GPGSV,2,2,08,21,48,114,43,22,72,274,50,24,15,087,40,27,53,268,46*78

$GLGSV,2,1,06,67,24,044,,68,74,357,49,69,40,244,,82,21,159,*6B

$GLGSV,2,2,06,83,77,209,45,84,39,323,43,,,,,,,,*61

$GNRMC,231955.00,A,4434.0458236,N,12316.4847814,W,0.03,159.07,281014,0.00,E,D*0E

$GPZDA,231956.00,28,10,2014,-07,00*4A

$GNVTG,138.5205,T,138.5205,M,0.014,N,0.026,K,D*39

$GNGSA,A,3,18,19,21,22,24,27,,,,,,,2.4,1.6,1.8*25

$GNGSA,A,3,68,83,84,,,,,,,,,,2.4,1.6,1.8*2D

$GPGSV,2,1,08,14,35,180,,15,22,046,,18,63,056,47,19,36,306,46*78

$GPGSV,2,2,08,21,48,114,43,22,72,274,50,24,15,087,40,27,53,268,46*78

$GLGSV,2,1,06,67,24,044,,68,74,357,48,69,40,244,,82,21,159,*6A

$GLGSV,2,2,06,83,77,209,45,84,39,323,42,,,,,,,,*60

$GNRMC,231956.00,A,4434.0458241,N,12316.4847778,W,0.01,138.52,281014,0.00,E,D*0D

$GPZDA,231957.00,28,10,2014,-07,00*4B

$GNVTG,8.1119,T,8.1119,M,0.039,N,0.072,K,D*37

$GNGSA,A,3,18,19,21,22,24,27,,,,,,,2.4,1.6,1.8*25

$GNGSA,A,3,68,83,84,,,,,,,,,,2.4,1.6,1.8*2D

$GPGSV,2,1,08,14,35,180,,15,22,046,,18,63,056,48,19,36,306,46*77

$GPGSV,2,2,08,21,48,114,43,22,72,274,50,24,15,087,41,27,53,268,46*79

$GLGSV,2,1,06,67,24,044,,68,74,357,49,69,40,244,,82,21,159,*6B

$GLGSV,2,2,06,83,77,209,45,84,39,323,42,,,,,,,,*60

$GNRMC,231957.00,A,4434.0458422,N,12316.4847769,W,0.04,8.11,281014,0.00,E,D*0F

$GPZDA,231958.00,28,10,2014,-07,00*44

$GNVTG,212.7792,T,212.7792,M,0.006,N,0.012,K,D*3D

$GNGSA,A,3,18,19,21,22,24,27,,,,,,,2.4,1.6,1.8*25

$GNGSA,A,3,68,83,84,,,,,,,,,,2.4,1.6,1.8*2D

$GPGSV,2,1,08,14,35,180,,15,22,046,,18,63,056,48,19,36,306,46*77

$GPGSV,2,2,08,21,48,114,43,22,72,274,50,24,15,087,40,27,53,268,46*78

$GLGSV,2,1,06,67,24,044,,68,74,357,49,69,40,244,,82,21,159,*6B

$GLGSV,2,2,06,83,77,209,45,84,39,323,43,,,,,,,,*61

$GNRMC,231958.00,A,4434.0458398,N,12316.4847834,W,0.01,212.78,281014,0.00,E,D*02

$GPZDA,231959.00,28,10,2014,-07,00*45

$GNVTG,131.1257,T,131.1257,M,0.022,N,0.040,K,D*3C

$GNGSA,A,3,18,19,21,22,24,27,,,,,,,2.4,1.6,1.8*25

$GNGSA,A,3,68,83,84,,,,,,,,,,2.4,1.6,1.8*2D

$GPGSV,2,1,08,14,35,180,,15,22,046,,18,63,056,48,19,36,306,46*77

$GPGSV,2,2,08,21,48,114,43,22,72,274,50,24,15,087,41,27,53,268,46*79

$GLGSV,2,1,06,67,24,044,,68,74,357,48,69,40,244,,82,21,159,*6A

$GLGSV,2,2,06,83,77,209,44,84,39,323,42,,,,,,,,*61

$GNRMC,231959.00,A,4434.0458355,N,12316.4847820,W,0.02,131.13,281014,0.00,E,D*0B

$GPZDA,232000.00,28,10,2014,-07,00*43

$GNVTG,175.6318,T,175.6318,M,0.014,N,0.026,K,D*39

$GNGSA,A,3,18,19,21,22,24,27,,,,,,,2.4,1.6,1.8*25

$GNGSA,A,3,68,83,84,,,,,,,,,,2.4,1.6,1.8*2D

$GPGSV,2,1,08,14,35,180,,15,22,046,,18,63,056,48,19,36,306,45*74

$GPGSV,2,2,08,21,48,114,43,22,72,274,50,24,15,087,41,27,53,268,47*78

$GLGSV,2,1,06,67,24,044,,68,74,357,48,69,40,244,,82,21,159,*6A

$GLGSV,2,2,06,83,77,209,44,84,39,323,42,,,,,,,,*61

$GNRMC,232000.00,A,4434.0458360,N,12316.4847828,W,0.01,175.63,281014,0.00,E,D*07

$GPZDA,232001.00,28,10,2014,-07,00*42

$GNVTG,138.1915,T,138.1915,M,0.016,N,0.029,K,D*34

$GNGSA,A,3,18,19,21,22,24,27,,,,,,,2.4,1.6,1.8*25

$GNGSA,A,3,68,83,84,,,,,,,,,,2.4,1.6,1.8*2D

$GPGSV,2,1,08,14,35,180,,15,22,046,,18,63,056,48,19,36,306,45*74

$GPGSV,2,2,08,21,48,114,43,22,72,274,50,24,15,087,41,27,53,268,47*78

$GLGSV,2,1,06,67,24,044,,68,74,357,49,69,40,244,,82,21,159,*6B

$GLGSV,2,2,06,83,77,209,44,84,39,323,41,,,,,,,,*62

$GNRMC,232001.00,A,4434.0458390,N,12316.4847772,W,0.02,138.19,281014,0.00,E,D*0E

$GPZDA,232002.00,28,10,2014,-07,00*41

$GNVTG,318.1111,T,318.1111,M,0.023,N,0.043,K,D*3E

$GNGSA,A,3,18,19,21,22,24,27,,,,,,,2.4,1.6,1.8*25

$GNGSA,A,3,68,83,84,,,,,,,,,,2.4,1.6,1.8*2D

$GPGSV,2,1,08,14,35,180,,15,22,046,,18,63,056,48,19,36,306,45*74

$GPGSV,2,2,08,21,48,114,43,22,72,274,50,24,15,087,41,27,53,268,47*78

$GLGSV,2,1,06,67,24,044,,68,74,357,49,69,40,244,,82,21,159,*6B

$GLGSV,2,2,06,83,77,209,44,84,39,323,42,,,,,,,,*61

$GNRMC,232002.00,A,4434.0458434,N,12316.4847878,W,0.02,318.11,281014,0.00,E,D*09

$GPZDA,232003.00,28,10,2014,-07,00*40

$GNVTG,186.3939,T,186.3939,M,0.008,N,0.015,K,D*34

$GNGSA,A,3,18,19,21,22,24,27,,,,,,,2.4,1.6,1.8*25

$GNGSA,A,3,68,83,84,,,,,,,,,,2.4,1.6,1.8*2D

$GPGSV,2,1,08,14,35,180,,15,22,046,,18,63,056,48,19,36,306,45*74

$GPGSV,2,2,08,21,48,114,43,22,72,274,50,24,15,087,41,27,53,268,47*78

$GLGSV,2,1,06,67,24,044,,68,74,357,49,69,40,244,38,82,21,159,*60

$GLGSV,2,2,06,83,77,209,44,84,39,323,42,,,,,,,,*61

$GNRMC,232003.00,A,4434.0458414,N,12316.4847918,W,0.01,186.39,281014,0.00,E,D*01

$GPZDA,232004.00,28,10,2014,-07,00*47

$GNVTG,233.3305,T,233.3305,M,0.017,N,0.031,K,D*3C

$GNGSA,A,3,18,19,21,22,24,27,,,,,,,2.4,1.6,1.8*25

$GNGSA,A,3,68,83,84,,,,,,,,,,2.4,1.6,1.8*2D

$GPGSV,2,1,08,14,35,180,,15,22,046,,18,63,056,48,19,36,306,46*77

$GPGSV,2,2,08,21,48,114,43,22,72,274,50,24,15,087,41,27,53,268,47*78

$GLGSV,2,1,06,67,24,044,,68,74,357,48,69,40,244,37,82,21,159,*6E

$GLGSV,2,2,06,83,77,209,44,84,39,323,42,,,,,,,,*61

$GNRMC,232004.00,A,4434.0458376,N,12316.4848031,W,0.02,233.33,281014,0.00,E,D*0C

$GPZDA,232005.00,28,10,2014,-07,00*46

$GNVTG,271.9681,T,271.9681,M,0.026,N,0.049,K,D*31

$GNGSA,A,3,18,19,21,22,24,27,,,,,,,2.4,1.6,1.8*25

$GNGSA,A,3,68,83,84,,,,,,,,,,2.4,1.6,1.8*2D

$GPGSV,2,1,08,14,35,180,,15,22,046,,18,63,056,48,19,36,306,46*77

$GPGSV,2,2,08,21,48,114,43,22,72,274,50,24,15,087,40,27,53,268,47*79

$GLGSV,2,1,06,67,24,044,,68,74,357,48,69,40,244,35,82,21,159,*6C

$GLGSV,2,2,06,83,77,209,44,84,39,323,42,,,,,,,,*61

$GNRMC,232005.00,A,4434.0458355,N,12316.4848182,W,0.03,271.97,281014,0.00,E,D*0C

$GPZDA,232006.00,28,10,2014,-07,00*45

$GNVTG,356.6292,T,356.6292,M,0.042,N,0.077,K,D*3E

$GNGSA,A,3,18,19,21,22,24,27,,,,,,,2.4,1.6,1.8*25

$GNGSA,A,3,68,83,84,,,,,,,,,,2.4,1.6,1.8*2D

$GPGSV,2,1,08,14,35,180,,15,22,046,,18,63,056,48,19,36,306,46*77

$GPGSV,2,2,08,21,48,114,43,22,72,274,50,24,15,087,40,27,53,268,47*79

$GLGSV,2,1,06,67,24,044,,68,74,357,49,69,40,244,37,82,21,159,*6F

$GLGSV,2,2,06,83,77,209,44,84,39,323,43,,,,,,,,*60

$GNRMC,232006.00,A,4434.0458504,N,12316.4848186,W,0.04,356.63,281014,0.00,E,D*01

$GPZDA,232007.00,28,10,2014,-07,00*44

$GNVTG,19.0803,T,19.0803,M,0.174,N,0.322,K,D*39

$GNGSA,A,3,18,19,21,22,24,27,,,,,,,2.4,1.6,1.8*25

$GNGSA,A,3,68,83,84,,,,,,,,,,2.4,1.6,1.8*2D

$GPGSV,2,1,08,14,35,180,,15,22,046,,18,63,056,49,19,36,306,48*78

$GPGSV,2,2,08,21,48,114,45,22,72,274,50,24,15,087,38,27,53,268,50*76

$GLGSV,2,1,06,67,24,044,,68,74,357,49,69,40,244,34,82,21,159,*6C

$GLGSV,2,2,06,83,77,209,44,84,39,323,42,,,,,,,,*61

$GNRMC,232007.00,A,4434.0458976,N,12316.4847943,W,0.17,19.08,281014,0.00,E,D*30

