Python interactive window. Type $help for a list of commands.
Interactive window is not yet started.
Running C:\Users\gillins-grad\Documents\GitHub\Trident_Project\Senior-Capstone-Project-Trident-Project\Parser.py
Do you have a GPS connected to the serial port? hit y or n, then enter
y
Found Ports:
>>> 
>>> 2
COM4
COM9
COM10
 
Choose a COM port #. Enter # only, then enter
9
Traceback (most recent call last):
  File "C:\Users\gillins-grad\Documents\GitHub\Trident_Project\Senior-Capstone-Project-Trident-Project\Parser.py", line 99, in <module>
    check_serial()
  File "C:\Users\gillins-grad\Documents\GitHub\Trident_Project\Senior-Capstone-Project-Trident-Project\Parser.py", line 14, in check_serial
    init_serial()
  File "C:\Users\gillins-grad\Documents\GitHub\Trident_Project\Senior-Capstone-Project-Trident-Project\Parser.py", line 39, in init_serial
    ser.stopbits = STOPBITS_ONE
NameError: global name 'STOPBITS_ONE' is not defined
Resetting execution engine
Running C:\Users\gillins-grad\Documents\GitHub\Trident_Project\Senior-Capstone-Project-Trident-Project\Parser.py
The Python REPL process has exited
Do you have a GPS connected to the serial port? hit y or n, then enter
y
Found Ports:
>>> 1
COM4
COM9
COM10
 
Choose a COM port #. Enter # only, then enter
9
OPEN: COM9

$GPZDA,001506.01,24,10,2014,-07,00*4F

$GPVTG,,,,,,,,,N*30

$GPGSA,A,1,,,,,,,,,,,,,,,*1E

$GPGSV,1,1,00,,,,,,,,,,,,,,,,*79

$GPRMC,,V,,,,,,,,,,N*53

$GPZDA,001507.00,24,10,2014,-07,00*4F

$GPVTG,,,,,,,,,N*30

$GPGSA,A,1,,,,,,,,,,,,,,,*1E

$GPGSV,1,1,00,,,,,,,,,,,,,,,,*79

$GPRMC,,V,,,,,,,,,,N*53

$GPZDA,001508.01,24,10,2014,-07,00*41

$GPVTG,,,,,,,,,N*30

$GPGSA,A,1,,,,,,,,,,,,,,,*1E

$GPGSV,1,1,00,,,,,,,,,,,,,,,,*79

$GPRMC,,V,,,,,,,,,,N*53

$GPZDA,001509.00,24,10,2014,-07,00*41

$GPVTG,,,,,,,,,N*30

$GPGSA,A,1,,,,,,,,,,,,,,,*1E

$GPGSV,1,1,00,,,,,,,,,,,,,,,,*79

$GPRMC,,V,,,,,,,,,,N*53

$GPZDA,001510.00,24,10,2014,-07,00*49

$GPVTG,,,,,,,,,N*30

$GPGSA,A,1,,,,,,,,,,,,,,,*1E

$GPGSV,1,1,00,,,,,,,,,,,,,,,,*79

$GPRMC,,V,,,,,,,,,,N*53

$GPZDA,001511.01,24,10,2014,-07,00*49

$GPVTG,,,,,,,,,N*30

$GPGSA,A,1,,,,,,,,,,,,,,,*1E

$GPGSV,1,1,00,,,,,,,,,,,,,,,,*79

$GPRMC,,V,,,,,,,,,,N*53

$GPZDA,001512.00,24,10,2014,-07,00*4B

$GPVTG,,,,,,,,,N*30

$GPGSA,A,1,,,,,,,,,,,,,,,*1E

$GPGSV,1,1,00,,,,,,,,,,,,,,,,*79

$GPRMC,,V,,,,,,,,,,N*53

$GPZDA,001513.00,24,10,2014,-07,00*4A

$GPVTG,,,,,,,,,N*30

$GPGSA,A,1,,,,,,,,,,,,,,,*1E

$GPGSV,1,1,00,,,,,,,,,,,,,,,,*79

$GPRMC,,V,,,,,,,,,,N*53

$GPZDA,001514.00,24,10,2014,-07,00*4D

$GPVTG,,,,,,,,,N*30

$GPGSA,A,1,,,,,,,,,,,,,,,*1E

$GPGSV,1,1,00,,,,,,,,,,,,,,,,*79

$GPRMC,,V,,,,,,,,,,N*53

$GPZDA,001515.00,24,10,2014,-07,00*4C

$GPVTG,,,,,,,,,N*30

$GPGSA,A,1,,,,,,,,,,,,,,,*1E

$GPGSV,1,1,00,,,,,,,,,,,,,,,,*79

$GPRMC,,V,,,,,,,,,,N*53

$GPZDA,001516.00,24,10,2014,-07,00*4F

$GPVTG,,,,,,,,,N*30

$GPGSA,A,1,,,,,,,,,,,,,,,*1E

$GPGSV,1,1,00,,,,,,,,,,,,,,,,*79

$GPRMC,,V,,,,,,,,,,N*53

$GPZDA,001517.00,24,10,2014,-07,00*4E

$GPVTG,,,,,,,,,N*30

$GPGSA,A,1,,,,,,,,,,,,,,,*1E

$GPGSV,1,1,00,,,,,,,,,,,,,,,,*79

$GPRMC,,V,,,,,,,,,,N*53

$GPZDA,001518.00,24,10,2014,-07,00*41

$GPVTG,,,,,,,,,N*30

$GPGSA,A,1,,,,,,,,,,,,,,,*1E

$GPGSV,1,1,00,,,,,,,,,,,,,,,,*79

$GPRMC,,V,,,,,,,,,,N*53

$GPZDA,001519.00,24,10,2014,-07,00*40

$GPVTG,,,,,,,,,N*30

$GPGSA,A,1,,,,,,,,,,,,,,,*1E

$GPGSV,1,1,00,,,,,,,,,,,,,,,,*79

$GPRMC,,V,,,,,,,,,,N*53

$GPZDA,001520.00,24,10,2014,-07,00*4A

$GPVTG,,,,,,,,,N*30

$GPGSA,A,1,,,,,,,,,,,,,,,*1E

$GPGSV,1,1,00,,,,,,,,,,,,,,,,*79

$GPRMC,,V,,,,,,,,,,N*53

$GPZDA,001521.01,24,10,2014,-07,00*4A

$GPVTG,,,,,,,,,N*30

$GPGSA,A,1,,,,,,,,,,,,,,,*1E

$GPGSV,1,1,00,,,,,,,,,,,,,,,,*79

$GPRMC,,V,,,,,,,,,,N*53

$GPZDA,001522.00,24,10,2014,-07,00*48

$GPVTG,,,,,,,,,N*30

$GPGSA,A,1,,,,,,,,,,,,,,,*1E

$GPGSV,1,1,00,,,,,,,,,,,,,,,,*79

$GPRMC,,V,,,,,,,,,,N*53

$GPZDA,001523.00,24,10,2014,-07,00*49

$GPVTG,,,,,,,,,N*30

$GPGSA,A,1,,,,,,,,,,,,,,,*1E

$GPGSV,1,1,00,,,,,,,,,,,,,,,,*79

$GPRMC,,V,,,,,,,,,,N*53

$GPZDA,001524.00,24,10,2014,-07,00*4E

$GPVTG,,,,,,,,,N*30

$GPGSA,A,1,,,,,,,,,,,,,,,*1E

$GPGSV,1,1,00,,,,,,,,,,,,,,,,*79

$GPRMC,,V,,,,,,,,,,N*53

$GPZDA,001525.00,24,10,2014,-07,00*4F

$GPVTG,,,,,,,,,N*30

$GPGSA,A,1,,,,,,,,,,,,,,,*1E

$GPGSV,1,1,00,,,,,,,,,,,,,,,,*79

$GPRMC,,V,,,,,,,,,,N*53

$GPZDA,001526.00,24,10,2014,-07,00*4C

$GPVTG,,,,,,,,,N*30

$GPGSA,A,1,,,,,,,,,,,,,,,*1E

$GPGSV,1,1,00,,,,,,,,,,,,,,,,*79

$GPRMC,,V,,,,,,,,,,N*53

$GPZDA,001527.00,24,10,2014,-07,00*4D

$GPVTG,,,,,,,,,N*30

$GPGSA,A,1,,,,,,,,,,,,,,,*1E

$GPGSV,1,1,00,,,,,,,,,,,,,,,,*79

$GPRMC,,V,,,,,,,,,,N*53

$GPZDA,001528.00,24,10,2014,-07,00*42

$GPVTG,,,,,,,,,N*30

$GPGSA,A,1,,,,,,,,,,,,,,,*1E

$GPGSV,1,1,00,,,,,,,,,,,,,,,,*79

$GPRMC,,V,,,,,,,,,,N*53

$GPZDA,001529.00,24,10,2014,-07,00*43

$GPVTG,,,,,,,,,N*30

$GPGSA,A,1,,,,,,,,,,,,,,,*1E

$GPGSV,1,1,00,,,,,,,,,,,,,,,,*79

$GPRMC,,V,,,,,,,,,,N*53

$GPZDA,001530.00,24,10,2014,-07,00*4B

$GPVTG,,,,,,,,,N*30

$GPGSA,A,1,,,,,,,,,,,,,,,*1E

$GPGSV,1,1,00,,,,,,,,,,,,,,,,*79

$GPRMC,,V,,,,,,,,,,N*53

$GPZDA,001531.00,24,10,2014,-07,00*4A

$GPVTG,,,,,,,,,N*30

$GPGSA,A,1,,,,,,,,,,,,,,,*1E

$GPGSV,1,1,00,,,,,,,,,,,,,,,,*79

$GPRMC,,V,,,,,,,,,,N*53

$GPZDA,001532.00,24,10,2014,-07,00*49

$GPVTG,,,,,,,,,N*30

$GPGSA,A,1,,,,,,,,,,,,,,,*1E

$GPGSV,1,1,00,,,,,,,,,,,,,,,,*79

$GPRMC,,V,,,,,,,,,,N*53

$GPZDA,001533.01,24,10,2014,-07,00*49

$GPVTG,,,,,,,,,N*30

$GPGSA,A,1,,,,,,,,,,,,,,,*1E

$GPGSV,1,1,00,,,,,,,,,,,,,,,,*79

$GPRMC,,V,,,,,,,,,,N*53

$GPZDA,001534.00,24,10,2014,-07,00*4F

$GPVTG,,,,,,,,,N*30

$GPGSA,A,1,,,,,,,,,,,,,,,*1E

$GPGSV,1,1,00,,,,,,,,,,,,,,,,*79

$GPRMC,,V,,,,,,,,,,N*53

$GPZDA,001535.00,24,10,2014,-07,00*4E

$GPVTG,,,,,,,,,N*30

$GPGSA,A,1,,,,,,,,,,,,,,,*1E

$GPGSV,1,1,00,,,,,,,,,,,,,,,,*79

$GPRMC,,V,,,,,,,,,,N*53

$GPZDA,001536.00,24,10,2014,-07,00*4D

$GPVTG,,,,,,,,,N*30

$GPGSA,A,1,,,,,,,,,,,,,,,*1E

$GPGSV,1,1,00,,,,,,,,,,,,,,,,*79

$GPRMC,,V,,,,,,,,,,N*53

$GPZDA,001537.00,24,10,2014,-07,00*4C

$GPVTG,,,,,,,,,N*30

$GPGSA,A,1,,,,,,,,,,,,,,,*1E

$GPGSV,1,1,00,,,,,,,,,,,,,,,,*79

$GPRMC,,V,,,,,,,,,,N*53

$GPZDA,001538.01,24,10,2014,-07,00*42

$GPVTG,,,,,,,,,N*30

$GPGSA,A,1,,,,,,,,,,,,,,,*1E

$GPGSV,1,1,00,,,,,,,,,,,,,,,,*79

$GPRMC,,V,,,,,,,,,,N*53

$GPZDA,001539.00,24,10,2014,-07,00*42

$GPVTG,,,,,,,,,N*30

$GPGSA,A,1,,,,,,,,,,,,,,,*1E

$GPGSV,1,1,00,,,,,,,,,,,,,,,,*79

$GPRMC,,V,,,,,,,,,,N*53

$GPZDA,001540.00,24,10,2014,-07,00*4C

$GPVTG,,,,,,,,,N*30

$GPGSA,A,1,,,,,,,,,,,,,,,*1E

$GPGSV,1,1,00,,,,,,,,,,,,,,,,*79

$GPRMC,,V,,,,,,,,,,N*53

$GPZDA,001541.00,24,10,2014,-07,00*4D

$GPVTG,,,,,,,,,N*30

$GPGSA,A,1,,,,,,,,,,,,,,,*1E

$GPGSV,1,1,00,,,,,,,,,,,,,,,,*79

$GPRMC,,V,,,,,,,,,,N*53

$GPZDA,001542.00,24,10,2014,-07,00*4E

$GPVTG,,,,,,,,,N*30

$GPGSA,A,1,,,,,,,,,,,,,,,*1E

$GPGSV,1,1,00,,,,,,,,,,,,,,,,*79

$GPRMC,,V,,,,,,,,,,N*53

$GPZDA,001543.01,24,10,2014,-07,00*4E

$GPVTG,,,,,,,,,N*30

$GPGSA,A,1,,,,,,,,,,,,,,,*1E

$GPGSV,1,1,00,,,,,,,,,,,,,,,,*79

$GPRMC,,V,,,,,,,,,,N*53

$GPZDA,001544.00,24,10,2014,-07,00*48

$GPVTG,,,,,,,,,N*30

$GPGSA,A,1,,,,,,,,,,,,,,,*1E

$GPGSV,1,1,00,,,,,,,,,,,,,,,,*79

$GPRMC,,V,,,,,,,,,,N*53

$GPZDA,001545.00,24,10,2014,-07,00*49

$GPVTG,,,,,,,,,N*30

$GPGSA,A,1,,,,,,,,,,,,,,,*1E

$GPGSV,1,1,00,,,,,,,,,,,,,,,,*79

$GPRMC,,V,,,,,,,,,,N*53

$GPZDA,001546.00,24,10,2014,-07,00*4A

$GPVTG,,,,,,,,,N*30

$GPGSA,A,1,,,,,,,,,,,,,,,*1E

$GPGSV,1,1,00,,,,,,,,,,,,,,,,*79

$GPRMC,,V,,,,,,,,,,N*53

$GPZDA,001547.00,24,10,2014,-07,00*4B

$GPVTG,,,,,,,,,N*30

$GPGSA,A,1,,,,,,,,,,,,,,,*1E

$GPGSV,1,1,00,,,,,,,,,,,,,,,,*79

$GPRMC,,V,,,,,,,,,,N*53

$GPZDA,001548.01,24,10,2014,-07,00*45

$GPVTG,,,,,,,,,N*30

$GPGSA,A,1,,,,,,,,,,,,,,,*1E

$GPGSV,1,1,00,,,,,,,,,,,,,,,,*79

$GPRMC,,V,,,,,,,,,,N*53

$GPZDA,001549.00,24,10,2014,-07,00*45

$GPVTG,,,,,,,,,N*30

$GPGSA,A,1,,,,,,,,,,,,,,,*1E

$GPGSV,1,1,00,,,,,,,,,,,,,,,,*79

$GPRMC,,V,,,,,,,,,,N*53

$GPZDA,001550.01,24,10,2014,-07,00*4C

$GPVTG,,,,,,,,,N*30

$GPGSA,A,1,,,,,,,,,,,,,,,*1E

$GPGSV,1,1,00,,,,,,,,,,,,,,,,*79

$GPRMC,,V,,,,,,,,,,N*53

$GPZDA,001551.00,24,10,2014,-07,00*4C

$GPVTG,,,,,,,,,N*30

$GPGSA,A,1,,,,,,,,,,,,,,,*1E

$GPGSV,1,1,00,,,,,,,,,,,,,,,,*79

$GPRMC,,V,,,,,,,,,,N*53

$GPZDA,001552.00,24,10,2014,-07,00*4F

$GPVTG,,,,,,,,,N*30

$GPGSA,A,1,,,,,,,,,,,,,,,*1E

$GPGSV,1,1,00,,,,,,,,,,,,,,,,*79

$GPRMC,,V,,,,,,,,,,N*53

$GPZDA,001553.00,24,10,2014,-07,00*4E

$GPVTG,,,,,,,,,N*30

$GPGSA,A,1,,,,,,,,,,,,,,,*1E

$GPGSV,1,1,00,,,,,,,,,,,,,,,,*79

$GPRMC,,V,,,,,,,,,,N*53

$GPZDA,001554.00,24,10,2014,-07,00*49

$GPVTG,,,,,,,,,N*30

$GPGSA,A,1,,,,,,,,,,,,,,,*1E

$GPGSV,1,1,00,,,,,,,,,,,,,,,,*79

$GPRMC,,V,,,,,,,,,,N*53

$GPZDA,001555.01,24,10,2014,-07,00*49

$GPVTG,,,,,,,,,N*30

$GPGSA,A,1,,,,,,,,,,,,,,,*1E

$GPGSV,1,1,00,,,,,,,,,,,,,,,,*79

$GPRMC,,V,,,,,,,,,,N*53

$GPZDA,001556.00,24,10,2014,-07,00*4B

$GPVTG,,,,,,,,,N*30

$GPGSA,A,1,,,,,,,,,,,,,,,*1E

$GPGSV,1,1,00,,,,,,,,,,,,,,,,*79

$GPRMC,,V,,,,,,,,,,N*53

$GPZDA,001557.00,24,10,2014,-07,00*4A

$GPVTG,,,,,,,,,N*30

$GPGSA,A,1,,,,,,,,,,,,,,,*1E

$GPGSV,1,1,00,,,,,,,,,,,,,,,,*79

$GPRMC,,V,,,,,,,,,,N*53

$GPZDA,001558.00,24,10,2014,-07,00*45

$GPVTG,,,,,,,,,N*30

$GPGSA,A,1,,,,,,,,,,,,,,,*1E

$GPGSV,1,1,00,,,,,,,,,,,,,,,,*79

$GPRMC,,V,,,,,,,,,,N*53

$GPZDA,001559.00,24,10,2014,-07,00*44

$GPVTG,,,,,,,,,N*30

$GPGSA,A,1,,,,,,,,,,,,,,,*1E

$GPGSV,1,1,00,,,,,,,,,,,,,,,,*79

$GPRMC,,V,,,,,,,,,,N*53

$GPZDA,001600.01,24,10,2014,-07,00*4A

$GPVTG,,,,,,,,,N*30

$GPGSA,A,1,,,,,,,,,,,,,,,*1E

$GPGSV,1,1,00,,,,,,,,,,,,,,,,*79

$GPRMC,,V,,,,,,,,,,N*53

$GPZDA,001601.00,24,10,2014,-07,00*4A

$GPVTG,,,,,,,,,N*30

$GPGSA,A,1,,,,,,,,,,,,,,,*1E

$GPGSV,1,1,00,,,,,,,,,,,,,,,,*79

$GPRMC,,V,,,,,,,,,,N*53

$GPZDA,001602.00,24,10,2014,-07,00*49

$GPVTG,,,,,,,,,N*30

$GPGSA,A,1,,,,,,,,,,,,,,,*1E

$GPGSV,1,1,00,,,,,,,,,,,,,,,,*79

$GPRMC,,V,,,,,,,,,,N*53

$GPZDA,001603.00,24,10,2014,-07,00*48

$GPVTG,,,,,,,,,N*30

$GPGSA,A,1,,,,,,,,,,,,,,,*1E

$GPGSV,1,1,00,,,,,,,,,,,,,,,,*79

$GPRMC,,V,,,,,,,,,,N*53

$GPZDA,001604.00,24,10,2014,-07,00*4F

$GPVTG,,,,,,,,,N*30

$GPGSA,A,1,,,,,,,,,,,,,,,*1E

$GPGSV,1,1,00,,,,,,,,,,,,,,,,*79

$GPRMC,,V,,,,,,,,,,N*53

$GPZDA,001605.00,24,10,2014,-07,00*4E

$GPVTG,,,,,,,,,N*30

$GPGSA,A,1,,,,,,,,,,,,,,,*1E

$GPGSV,1,1,00,,,,,,,,,,,,,,,,*79

$GPRMC,,V,,,,,,,,,,N*53

$GPZDA,001606.00,24,10,2014,-07,00*4D

$GPVTG,,,,,,,,,N*30

$GPGSA,A,1,,,,,,,,,,,,,,,*1E

$GPGSV,1,1,00,,,,,,,,,,,,,,,,*79

$GPRMC,,V,,,,,,,,,,N*53

$GPZDA,001607.00,24,10,2014,-07,00*4C

$GPVTG,,,,,,,,,N*30

$GPGSA,A,1,,,,,,,,,,,,,,,*1E

$GPGSV,1,1,00,,,,,,,,,,,,,,,,*79

$GPRMC,,V,,,,,,,,,,N*53

$GPZDA,001608.01,24,10,2014,-07,00*42

$GPVTG,,,,,,,,,N*30

$GPGSA,A,1,,,,,,,,,,,,,,,*1E

$GPGSV,1,1,00,,,,,,,,,,,,,,,,*79

$GPRMC,,V,,,,,,,,,,N*53

$GPZDA,001609.00,24,10,2014,-07,00*42

$GPVTG,,,,,,,,,N*30

$GPGSA,A,1,,,,,,,,,,,,,,,*1E

$GPGSV,1,1,00,,,,,,,,,,,,,,,,*79

$GPRMC,,V,,,,,,,,,,N*53

$GPZDA,001610.00,24,10,2014,-07,00*4A

$GPVTG,,,,,,,,,N*30

$GPGSA,A,1,,,,,,,,,,,,,,,*1E

$GPGSV,1,1,00,,,,,,,,,,,,,,,,*79

$GPRMC,,V,,,,,,,,,,N*53

$GPZDA,001611.00,24,10,2014,-07,00*4B

$GPVTG,,,,,,,,,N*30

$GPGSA,A,1,,,,,,,,,,,,,,,*1E

$GPGSV,1,1,00,,,,,,,,,,,,,,,,*79

$GPRMC,,V,,,,,,,,,,N*53

$GPZDA,001612.00,24,10,2014,-07,00*48

$GPVTG,,,,,,,,,N*30

$GPGSA,A,1,,,,,,,,,,,,,,,*1E

$GPGSV,1,1,00,,,,,,,,,,,,,,,,*79

$GPRMC,,V,,,,,,,,,,N*53

$GPZDA,001613.01,24,10,2014,-07,00*48

$GPVTG,,,,,,,,,N*30

$GPGSA,A,1,,,,,,,,,,,,,,,*1E

$GPGSV,1,1,00,,,,,,,,,,,,,,,,*79

$GPRMC,,V,,,,,,,,,,N*53

$GPZDA,001614.00,24,10,2014,-07,00*4E

$GPVTG,,,,,,,,,N*30

$GPGSA,A,1,,,,,,,,,,,,,,,*1E

$GPGSV,1,1,00,,,,,,,,,,,,,,,,*79

$GPRMC,,V,,,,,,,,,,N*53

$GPZDA,001615.00,24,10,2014,-07,00*4F

$GPVTG,,,,,,,,,N*30

$GPGSA,A,1,,,,,,,,,,,,,,,*1E

$GPGSV,1,1,00,,,,,,,,,,,,,,,,*79

$GPRMC,,V,,,,,,,,,,N*53

$GPZDA,001616.00,24,10,2014,-07,00*4C

$GPVTG,,,,,,,,,N*30

$GPGSA,A,1,,,,,,,,,,,,,,,*1E

$GPGSV,1,1,00,,,,,,,,,,,,,,,,*79

$GPRMC,,V,,,,,,,,,,N*53

$GPZDA,001617.00,24,10,2014,-07,00*4D

$GPVTG,,,,,,,,,N*30

$GPGSA,A,1,,,,,,,,,,,,,,,*1E

$GPGSV,1,1,00,,,,,,,,,,,,,,,,*79

$GPRMC,,V,,,,,,,,,,N*53

$GPZDA,001618.01,24,10,2014,-07,00*43

$GPVTG,,,,,,,,,N*30

$GPGSA,A,1,,,,,,,,,,,,,,,*1E

$GPGSV,1,1,00,,,,,,,,,,,,,,,,*79

$GPRMC,,V,,,,,,,,,,N*53

$GPZDA,001619.00,24,10,2014,-07,00*43

$GNVTG,,,,,,,,,N*2E

$GNGSA,A,3,18,19,22,,,,,,,,,,5.7,3.3,4.7*2C

$GNGSA,A,3,71,72,87,,,,,,,,,,5.7,3.3,4.7*21

$GPGSV,1,1,00,,,,,,,,,,,,,,,,*79

$GNRMC,001617.00,A,4434.0434705,N,12316.4877163,W,0.00,0.00,241014,0.00,E,A*03

$GPZDA,001620.00,24,10,2014,-07,00*49

$GNVTG,,,,,,,,,N*2E

$GNGSA,A,3,18,19,22,,,,,,,,,,5.7,3.3,4.7*2C

$GNGSA,A,3,71,72,87,,,,,,,,,,5.7,3.3,4.7*21

$GPGSV,2,1,07,14,53,177,,18,49,066,49,19,45,287,46,21,33,125,*75

$GPGSV,2,2,07,22,80,338,48,24,21,072,,27,47,242,,,,,*40

$GLGSV,2,1,07,70,10,053,,71,58,027,50,72,55,268,41,80,14,049,*66

$GLGSV,2,2,07,86,50,184,,87,58,304,51,88,13,331,,,,,*56

$GNRMC,001618.00,A,4434.0434259,N,12316.4877291,W,0.00,0.00,241014,0.00,E,A*0E

$GPZDA,001621.01,24,10,2014,-07,00*49

$GNVTG,336.9261,T,336.9261,M,0.032,N,0.059,K,A*30

$GNGSA,A,3,18,19,22,,,,,,,,,,5.7,3.3,4.7*2C

$GNGSA,A,3,71,72,87,,,,,,,,,,5.7,3.3,4.7*21

$GPGSV,2,1,07,14,53,177,,18,49,066,49,19,45,287,47,21,33,125,*74

$GPGSV,2,2,07,22,80,338,48,24,21,072,,27,47,242,,,,,*40

$GLGSV,2,1,07,70,10,053,,71,58,027,49,72,55,268,41,80,14,049,*6E

$GLGSV,2,2,07,86,50,184,,87,58,304,51,88,13,331,,,,,*56

$GNRMC,001619.00,A,4434.0433064,N,12316.4877127,W,0.03,336.93,241014,0.00,E,A*05

$GPZDA,001622.00,24,10,2014,-07,00*4B

$GNVTG,183.0862,T,183.0862,M,0.014,N,0.026,K,A*3C

$GNGSA,A,3,18,19,22,,,,,,,,,,5.7,3.3,4.7*2C

$GNGSA,A,3,71,72,87,,,,,,,,,,5.7,3.3,4.7*21

$GPGSV,2,1,07,14,53,177,,18,49,066,49,19,45,287,46,21,33,125,*75

$GPGSV,2,2,07,22,80,338,49,24,21,072,,27,47,242,,,,,*41

$GLGSV,2,1,07,70,10,053,,71,58,027,50,72,55,268,41,80,14,049,*66

$GLGSV,2,2,07,86,50,184,,87,58,304,51,88,13,331,,,,,*56

$GNRMC,001620.00,A,4434.0431810,N,12316.4876751,W,0.01,183.09,241014,0.00,E,A*0D

$GPZDA,001623.00,24,10,2014,-07,00*4A

$GNVTG,172.5071,T,172.5071,M,0.025,N,0.047,K,A*39

$GNGSA,A,3,18,19,22,,,,,,,,,,5.7,3.3,4.6*2D

$GNGSA,A,3,71,72,87,,,,,,,,,,5.7,3.3,4.6*20

$GPGSV,2,1,07,14,53,177,,18,49,066,49,19,45,287,46,21,33,125,*75

$GPGSV,2,2,07,22,80,338,49,24,21,072,,27,47,242,,,,,*41

$GLGSV,2,1,07,70,10,053,,71,58,027,50,72,55,268,41,80,14,049,*66

$GLGSV,2,2,07,86,50,184,,87,58,304,51,88,13,331,,,,,*56

$GNRMC,001621.00,A,4434.0430365,N,12316.4876393,W,0.03,172.51,241014,0.00,E,A*0F

$GPZDA,001624.00,24,10,2014,-07,00*4D

$GNVTG,246.8496,T,246.8496,M,0.010,N,0.019,K,A*34

$GNGSA,A,3,18,19,22,,,,,,,,,,5.7,3.3,4.7*2C

$GNGSA,A,3,71,72,87,,,,,,,,,,5.7,3.3,4.7*21

$GPGSV,2,1,07,14,53,177,,18,49,066,49,19,45,287,46,21,33,125,*75

$GPGSV,2,2,07,22,80,338,49,24,21,072,,27,47,242,,,,,*41

$GLGSV,2,1,07,70,10,053,,71,58,027,50,72,55,268,41,80,14,049,*66

$GLGSV,2,2,07,86,50,184,,87,58,304,51,88,13,331,,,,,*56

$GNRMC,001622.00,A,4434.0429345,N,12316.4875777,W,0.01,246.85,241014,0.00,E,A*04

$GPZDA,001625.00,24,10,2014,-07,00*4C

$GNVTG,317.4729,T,317.4729,M,0.003,N,0.006,K,A*38

$GNGSA,A,3,18,19,22,,,,,,,,,,5.7,3.3,4.6*2D

$GNGSA,A,3,71,72,87,,,,,,,,,,5.7,3.3,4.6*20

$GPGSV,2,1,07,14,53,177,,18,49,066,49,19,45,287,46,21,33,125,*75

$GPGSV,2,2,07,22,80,338,49,24,21,072,,27,47,242,,,,,*41

$GLGSV,2,1,07,70,10,053,,71,58,028,50,72,55,268,41,80,14,049,*69

$GLGSV,2,2,07,86,50,184,,87,58,304,51,88,13,331,,,,,*56

$GNRMC,001623.00,A,4434.0428012,N,12316.4875552,W,0.00,317.47,241014,0.00,E,A*0A

$GPZDA,001626.01,24,10,2014,-07,00*4E

$GNVTG,317.1151,T,317.1151,M,0.013,N,0.025,K,A*38

$GNGSA,A,3,18,19,22,,,,,,,,,,5.7,3.3,4.6*2D

$GNGSA,A,3,71,72,87,,,,,,,,,,5.7,3.3,4.6*20

$GPGSV,2,1,07,14,53,177,,18,49,066,49,19,45,287,46,21,33,125,*75

$GPGSV,2,2,07,22,80,338,49,24,21,072,,27,47,242,,,,,*41

$GLGSV,2,1,07,70,10,053,,71,58,028,50,72,55,268,41,80,14,049,*69

$GLGSV,2,2,07,86,50,184,,87,58,304,51,88,13,331,,,,,*56

$GNRMC,001624.00,A,4434.0426774,N,12316.4875338,W,0.01,317.12,241014,0.00,E,A*0F

$GPZDA,001627.00,24,10,2014,-07,00*4E

$GNVTG,186.3078,T,186.3078,M,0.023,N,0.042,K,A*3A

$GNGSA,A,3,18,19,22,,,,,,,,,,5.7,3.3,4.6*2D

$GNGSA,A,3,71,72,87,,,,,,,,,,5.7,3.3,4.6*20

$GPGSV,2,1,07,14,53,177,,18,49,066,49,19,45,287,46,21,33,125,*75

$GPGSV,2,2,07,22,80,338,49,24,21,072,,27,47,242,,,,,*41

$GLGSV,2,1,07,70,10,053,,71,58,028,50,72,55,268,40,80,14,049,*68

$GLGSV,2,2,07,86,50,184,,87,58,304,51,88,13,331,,,,,*56

$GNRMC,001625.00,A,4434.0425697,N,12316.4875184,W,0.02,186.31,241014,0.00,E,A*0C

$GPZDA,001628.00,24,10,2014,-07,00*41

$GNVTG,39.5288,T,39.5288,M,0.002,N,0.003,K,A*3C

$GNGSA,A,3,18,19,22,,,,,,,,,,5.7,3.3,4.6*2D

$GNGSA,A,3,71,72,87,,,,,,,,,,5.7,3.3,4.6*20

$GPGSV,2,1,07,14,53,177,,18,49,066,49,19,45,287,46,21,33,125,*75

$GPGSV,2,2,07,22,80,338,49,24,21,072,,27,47,242,,,,,*41

$GLGSV,2,1,07,70,10,053,,71,58,028,50,72,55,268,40,80,14,049,*68

$GLGSV,2,2,07,86,50,184,,87,58,304,51,88,13,331,,,,,*56

$GNRMC,001626.00,A,4434.0424730,N,12316.4875002,W,0.00,39.53,241014,0.00,E,A*3E

$GPZDA,001629.00,24,10,2014,-07,00*40

$GNVTG,181.3450,T,181.3450,M,0.018,N,0.033,K,A*34

$GNGSA,A,3,18,19,22,,,,,,,,,,5.7,3.3,4.6*2D

$GNGSA,A,3,71,72,87,,,,,,,,,,5.7,3.3,4.6*20

$GPGSV,2,1,07,14,53,177,,18,49,066,49,19,45,287,46,21,33,125,*75

$GPGSV,2,2,07,22,80,338,49,24,21,072,,27,47,242,,,,,*41

$GLGSV,2,1,07,70,10,053,,71,58,028,50,72,55,268,40,80,14,049,*68

$GLGSV,2,2,07,86,50,184,,87,58,304,51,88,13,331,,,,,*56

$GNRMC,001627.00,A,4434.0423793,N,12316.4874757,W,0.02,181.35,241014,0.00,E,A*07

$GPZDA,001630.00,24,10,2014,-07,00*48

$GNVTG,155.0078,T,155.0078,M,0.009,N,0.016,K,A*33

$GNGSA,A,3,18,19,22,,,,,,,,,,5.7,3.3,4.6*2D

$GNGSA,A,3,71,72,87,,,,,,,,,,5.7,3.3,4.6*20

$GPGSV,2,1,07,14,53,177,,18,49,066,50,19,45,287,46,21,33,125,*7D

$GPGSV,2,2,07,22,80,339,49,24,21,072,,27,47,242,,,,,*40

$GLGSV,2,1,07,70,10,053,,71,57,028,50,72,55,268,40,80,14,049,*67

$GLGSV,2,2,07,86,50,184,,87,58,304,51,88,13,331,,,,,*56

$GNRMC,001628.00,A,4434.0422826,N,12316.4874539,W,0.01,155.01,241014,0.00,E,A*0F

$GPZDA,001631.00,24,10,2014,-07,00*49

$GNVTG,183.5843,T,183.5843,M,0.009,N,0.017,K,A*32

$GNGSA,A,3,18,19,22,,,,,,,,,,5.7,3.4,4.6*2A

$GNGSA,A,3,71,72,87,,,,,,,,,,5.7,3.4,4.6*27

$GPGSV,2,1,07,14,53,177,,18,49,066,50,19,45,287,47,21,33,125,*7C

$GPGSV,2,2,07,22,80,339,49,24,21,072,,27,47,242,,,,,*40

$GLGSV,2,1,07,70,10,053,,71,57,028,50,72,55,268,40,80,14,049,*67

$GLGSV,2,2,07,86,50,184,,87,58,304,51,88,13,331,,,,,*56

$GNRMC,001629.00,A,4434.0421856,N,12316.4874367,W,0.01,183.58,241014,0.00,E,A*00

$GPZDA,001632.00,24,10,2014,-07,00*4A

$GNVTG,355.0411,T,355.0411,M,0.026,N,0.048,K,A*35

$GNGSA,A,3,18,19,22,,,,,,,,,,5.7,3.4,4.6*2A

$GNGSA,A,3,71,72,87,,,,,,,,,,5.7,3.4,4.6*27

$GPGSV,2,1,07,14,53,177,,18,49,066,50,19,45,287,47,21,33,125,*7C

$GPGSV,2,2,07,22,80,339,49,24,21,072,,27,47,242,,,,,*40

$GLGSV,2,1,07,70,10,053,,71,57,028,49,72,55,268,40,80,14,049,*6F

$GLGSV,2,2,07,86,50,184,,87,58,304,51,88,13,331,,,,,*56

$GNRMC,001630.00,A,4434.0421116,N,12316.4874228,W,0.03,355.04,241014,0.00,E,A*0D

$GPZDA,001633.00,24,10,2014,-07,00*4B

$GNVTG,351.0939,T,351.0939,M,0.012,N,0.023,K,A*3F

$GNGSA,A,3,18,19,22,,,,,,,,,,5.7,3.4,4.6*2A

$GNGSA,A,3,71,72,87,,,,,,,,,,5.7,3.4,4.6*27

$GPGSV,2,1,07,14,53,177,,18,49,066,50,19,45,287,47,21,33,125,*7C

$GPGSV,2,2,07,22,80,339,49,24,21,072,,27,47,242,,,,,*40

$GLGSV,2,1,07,70,10,053,,71,57,028,49,72,55,268,40,80,14,049,*6F

$GLGSV,2,2,07,86,50,184,,87,58,304,51,88,13,331,,,,,*56

$GNRMC,001631.00,A,4434.0420416,N,12316.4874117,W,0.01,351.09,241014,0.00,E,A*0C

$GPZDA,001634.00,24,10,2014,-07,00*4C

$GNVTG,339.8651,T,339.8651,M,0.016,N,0.029,K,A*31

$GNGSA,A,3,18,19,22,,,,,,,,,,5.7,3.4,4.6*2A

$GNGSA,A,3,71,72,87,,,,,,,,,,5.7,3.4,4.6*27

$GPGSV,2,1,07,14,53,177,,18,49,066,50,19,45,287,47,21,33,125,*7C

$GPGSV,2,2,07,22,80,339,49,24,21,072,,27,47,242,,,,,*40

$GLGSV,2,1,07,70,10,053,,71,57,028,49,72,55,268,39,80,14,049,*61

$GLGSV,2,2,07,86,50,184,,87,58,304,51,88,13,331,,,,,*56

$GNRMC,001632.00,A,4434.0419991,N,12316.4874050,W,0.02,339.87,241014,0.00,E,A*0E

$GPZDA,001635.00,24,10,2014,-07,00*4D

$GNVTG,262.2849,T,262.2849,M,0.008,N,0.014,K,A*30

$GNGSA,A,3,18,19,22,,,,,,,,,,5.7,3.4,4.6*2A

$GNGSA,A,3,71,72,87,,,,,,,,,,5.7,3.4,4.6*27

$GPGSV,2,1,07,14,53,177,,18,49,066,50,19,45,287,47,21,33,125,*7C

$GPGSV,2,2,07,22,80,339,49,24,21,072,,27,47,242,,,,,*40

$GLGSV,2,1,07,70,10,053,,71,57,028,49,72,55,268,39,80,14,049,*61

$GLGSV,2,2,07,86,50,184,,87,59,304,51,88,13,331,,,,,*57

$GNRMC,001633.00,A,4434.0419353,N,12316.4873979,W,0.01,262.28,241014,0.00,E,A*07

$GPZDA,001636.00,24,10,2014,-07,00*4E

$GNVTG,173.3303,T,173.3303,M,0.039,N,0.072,K,A*32

$GNGSA,A,3,18,19,22,,,,,,,,,,5.7,3.4,4.6*2A

$GNGSA,A,3,71,72,87,,,,,,,,,,5.7,3.4,4.6*27

$GPGSV,2,1,07,14,53,177,,18,49,066,50,19,45,287,47,21,33,125,*7C

$GPGSV,2,2,07,22,80,339,49,24,21,072,,27,47,242,,,,,*40

$GLGSV,2,1,07,70,10,053,,71,57,028,50,72,55,268,40,80,14,049,*67

$GLGSV,2,2,07,86,50,184,,87,59,304,51,88,13,331,,,,,*57

$GNRMC,001634.00,A,4434.0418673,N,12316.4873862,W,0.04,173.33,241014,0.00,E,A*01

$GPZDA,001637.00,24,10,2014,-07,00*4F

$GNVTG,346.9464,T,346.9464,M,0.003,N,0.006,K,A*38

$GNGSA,A,3,18,19,22,,,,,,,,,,5.7,3.4,4.6*2A

$GNGSA,A,3,71,72,87,,,,,,,,,,5.7,3.4,4.6*27

$GPGSV,2,1,07,14,53,177,,18,49,066,50,19,45,287,47,21,33,125,*7C

$GPGSV,2,2,07,22,80,339,49,24,21,072,,27,47,242,,,,,*40

$GLGSV,2,1,07,70,10,053,,71,57,028,50,72,55,268,40,80,14,049,*67

$GLGSV,2,2,07,86,50,184,,87,59,304,51,88,13,331,,,,,*57

$GNRMC,001635.00,A,4434.0418006,N,12316.4873726,W,0.00,346.95,241014,0.00,E,A*07

$GPZDA,001638.00,24,10,2014,-07,00*40

$GNVTG,345.0453,T,345.0453,M,0.019,N,0.036,K,A*30

$GNGSA,A,3,18,19,22,,,,,,,,,,5.7,3.4,4.6*2A

$GNGSA,A,3,71,72,87,,,,,,,,,,5.7,3.4,4.6*27

$GPGSV,2,1,07,14,53,177,,18,49,066,49,19,45,287,47,21,33,125,*74

$GPGSV,2,2,07,22,80,339,49,24,21,072,32,27,47,242,,,,,*41

$GLGSV,2,1,07,70,10,053,,71,57,028,50,72,55,268,40,80,14,049,*67

$GLGSV,2,2,07,86,50,184,,87,59,304,51,88,13,331,,,,,*57

$GNRMC,001636.00,A,4434.0417434,N,12316.4873641,W,0.02,345.05,241014,0.00,E,A*06

$GPZDA,001639.00,24,10,2014,-07,00*41

$GNVTG,346.1946,T,346.1946,M,0.012,N,0.022,K,A*3E

$GNGSA,A,3,18,19,22,,,,,,,,,,5.7,3.4,4.6*2A

$GNGSA,A,3,71,72,87,,,,,,,,,,5.7,3.4,4.6*27

$GPGSV,2,1,07,14,53,177,,18,49,066,49,19,45,287,47,21,33,125,*74

$GPGSV,2,2,07,22,80,339,49,24,21,072,33,27,47,242,,,,,*40

$GLGSV,2,1,07,70,10,053,,71,57,028,50,72,55,268,40,80,14,049,*67

$GLGSV,2,2,07,86,50,184,,87,59,304,51,88,13,331,,,,,*57

$GNRMC,001637.00,A,4434.0417110,N,12316.4873556,W,0.01,346.19,241014,0.00,E,A*0C

$GPZDA,001640.00,24,10,2014,-07,00*4F

$GNVTG,181.6583,T,181.6583,M,0.060,N,0.111,K,A*3A

$GNGSA,A,3,18,19,22,,,,,,,,,,5.7,3.4,4.6*2A

$GNGSA,A,3,71,72,87,,,,,,,,,,5.7,3.4,4.6*27

$GPGSV,2,1,07,14,53,177,,18,49,066,49,19,45,287,47,21,33,125,*74

$GPGSV,2,2,07,22,80,339,49,24,21,072,31,27,47,242,,,,,*42

$GLGSV,2,1,07,70,10,053,,71,57,028,50,72,55,268,40,80,14,049,*67

$GLGSV,2,2,07,86,50,184,,87,59,304,51,88,13,331,,,,,*57

$GNRMC,001638.00,A,4434.0416567,N,12316.4873421,W,0.06,181.66,241014,0.00,E,A*01

$GPZDA,001641.00,24,10,2014,-07,00*4E

$GNVTG,192.1460,T,192.1460,M,0.029,N,0.054,K,A*37

$GNGSA,A,3,18,19,22,,,,,,,,,,5.7,3.4,4.6*2A

$GNGSA,A,3,71,72,87,,,,,,,,,,5.7,3.4,4.6*27

$GPGSV,2,1,07,14,53,177,,18,49,066,49,19,45,287,47,21,33,125,*74

$GPGSV,2,2,07,22,80,339,49,24,21,072,30,27,47,242,,,,,*43

$GLGSV,2,1,07,70,10,053,,71,57,028,50,72,55,268,40,80,15,049,*66

$GLGSV,2,2,07,86,50,184,,87,59,304,51,88,13,331,,,,,*57

$GNRMC,001639.00,A,4434.0416113,N,12316.4873360,W,0.03,192.15,241014,0.00,E,A*06

$GPZDA,001642.00,24,10,2014,-07,00*4D

$GNVTG,193.7919,T,193.7919,M,0.009,N,0.017,K,A*32

$GNGSA,A,3,18,19,22,,,,,,,,,,5.7,3.4,4.6*2A

$GNGSA,A,3,71,72,87,,,,,,,,,,5.7,3.4,4.6*27

$GPGSV,2,1,07,14,53,177,,18,49,066,49,19,45,287,47,21,33,125,*74

$GPGSV,2,2,07,22,80,339,49,24,21,072,29,27,47,242,,,,,*4B

$GLGSV,2,1,07,70,10,053,,71,57,028,50,72,55,268,40,80,15,049,*66

$GLGSV,2,2,07,86,50,184,,87,59,304,51,88,13,331,,,,,*57

$GNRMC,001640.00,A,4434.0415758,N,12316.4873285,W,0.01,193.79,241014,0.00,E,A*01

$GPZDA,001643.00,24,10,2014,-07,00*4C

$GNVTG,345.3727,T,345.3727,M,0.019,N,0.036,K,A*30

$GNGSA,A,3,18,19,22,,,,,,,,,,5.7,3.4,4.6*2A

$GNGSA,A,3,71,72,87,,,,,,,,,,5.7,3.4,4.6*27

$GPGSV,2,1,07,14,53,177,,18,49,066,49,19,45,287,47,21,33,125,*74

$GPGSV,2,2,07,22,80,339,49,24,21,072,32,27,47,242,,,,,*41

$GLGSV,2,1,07,70,10,053,,71,57,028,50,72,55,268,40,80,15,049,*66

$GLGSV,2,2,07,86,50,184,,87,59,304,51,88,13,331,,,,,*57

$GNRMC,001641.00,A,4434.0415549,N,12316.4873221,W,0.02,345.37,241014,0.00,E,A*0C

$GPZDA,001644.00,24,10,2014,-07,00*4B

$GNVTG,341.1294,T,341.1294,M,0.030,N,0.055,K,A*3E

$GNGSA,A,3,18,19,22,,,,,,,,,,5.7,3.4,4.6*2A

$GNGSA,A,3,71,72,87,,,,,,,,,,5.7,3.4,4.6*27

$GPGSV,2,1,07,14,53,177,,18,49,066,49,19,45,287,47,21,33,125,*74

$GPGSV,2,2,07,22,80,339,49,24,21,072,33,27,47,242,,,,,*40

$GLGSV,2,1,07,70,10,053,,71,57,028,49,72,55,268,39,80,15,049,*60

$GLGSV,2,2,07,86,50,184,,87,59,304,51,88,13,331,,,,,*57

$GNRMC,001642.00,A,4434.0415512,N,12316.4873146,W,0.03,341.13,241014,0.00,E,A*00

$GPZDA,001645.00,24,10,2014,-07,00*4A

$GNVTG,321.8784,T,321.8784,M,0.019,N,0.035,K,A*33

$GNGSA,A,3,18,19,22,,,,,,,,,,5.7,3.4,4.6*2A

$GNGSA,A,3,71,72,87,,,,,,,,,,5.7,3.4,4.6*27

$GPGSV,2,1,07,14,53,177,,18,49,066,49,19,45,287,47,21,33,125,*74

$GPGSV,2,2,07,22,80,339,49,24,21,072,30,27,47,242,,,,,*43

$GLGSV,2,1,07,70,10,053,,71,57,028,49,72,55,268,39,80,15,049,*60

$GLGSV,2,2,07,86,50,184,,87,59,304,51,88,13,331,,,,,*57

$GNRMC,001643.00,A,4434.0415336,N,12316.4873145,W,0.02,321.88,241014,0.00,E,A*07

$GPZDA,001646.00,24,10,2014,-07,00*49

$GNVTG,226.6901,T,226.6901,M,0.011,N,0.020,K,A*3F

$GNGSA,A,3,18,19,22,,,,,,,,,,5.7,3.4,4.6*2A

$GNGSA,A,3,71,72,87,,,,,,,,,,5.7,3.4,4.6*27

$GPGSV,2,1,07,14,53,177,,18,49,066,49,19,45,287,47,21,33,125,*74

$GPGSV,2,2,07,22,80,339,49,24,21,072,31,27,47,242,,,,,*42

$GLGSV,2,1,07,70,10,053,,71,57,028,49,72,55,268,39,80,15,049,*60

$GLGSV,2,2,07,86,50,184,,87,59,304,51,88,13,331,,,,,*57

$GNRMC,001644.00,A,4434.0415123,N,12316.4873107,W,0.01,226.69,241014,0.00,E,A*0A

$GPZDA,001647.00,24,10,2014,-07,00*48

$GNVTG,190.1385,T,190.1385,M,0.012,N,0.023,K,A*3F

$GNGSA,A,3,18,19,22,,,,,,,,,,5.7,3.4,4.6*2A

$GNGSA,A,3,71,72,87,,,,,,,,,,5.7,3.4,4.6*27

$GPGSV,2,1,07,14,53,177,,18,49,066,49,19,45,287,47,21,33,125,*74

$GPGSV,2,2,07,22,80,339,49,24,21,072,31,27,47,242,,,,,*42

$GLGSV,2,1,07,70,10,053,,71,57,028,49,72,55,268,39,80,15,049,*60

$GLGSV,2,2,07,86,50,184,,87,59,304,51,88,13,331,,,,,*57

$GNRMC,001645.00,A,4434.0414919,N,12316.4873044,W,0.01,190.14,241014,0.00,E,A*09

$GPZDA,001648.00,24,10,2014,-07,00*47

$GNVTG,340.4098,T,340.4098,M,0.057,N,0.106,K,A*38

$GNGSA,A,3,18,19,22,,,,,,,,,,5.7,3.4,4.6*2A

$GNGSA,A,3,71,72,87,,,,,,,,,,5.7,3.4,4.6*27

$GPGSV,2,1,07,14,53,177,,18,49,066,50,19,45,287,46,21,33,125,*7D

$GPGSV,2,2,07,22,80,339,49,24,21,072,35,27,47,242,,,,,*46

$GLGSV,2,1,07,70,10,053,,71,57,028,48,72,55,268,39,80,15,049,*61

$GLGSV,2,2,07,86,50,184,,87,59,304,51,88,13,331,,,,,*57

$GNRMC,001646.00,A,4434.0414934,N,12316.4873082,W,0.06,340.41,241014,0.00,E,A*07

$GPZDA,001649.00,24,10,2014,-07,00*46

$GNVTG,48.6017,T,48.6017,M,0.019,N,0.035,K,A*33

$GNGSA,A,3,18,19,22,,,,,,,,,,5.7,3.4,4.6*2A

$GNGSA,A,3,71,72,87,,,,,,,,,,5.7,3.4,4.6*27

$GPGSV,2,1,07,14,53,177,,18,49,066,49,19,45,287,45,21,33,125,*76

$GPGSV,2,2,07,22,80,339,49,24,21,072,35,27,47,242,,,,,*46

$GLGSV,2,1,07,70,10,053,,71,57,028,49,72,55,268,39,80,15,049,*60

$GLGSV,2,2,07,86,50,184,,87,59,304,51,88,13,331,,,,,*57

$GNRMC,001647.00,A,4434.0415149,N,12316.4873049,W,0.02,48.60,241014,0.00,E,A*3E

$GPZDA,001650.00,24,10,2014,-07,00*4E

$GNVTG,354.7107,T,354.7107,M,0.047,N,0.087,K,A*31

$GNGSA,A,3,18,19,22,,,,,,,,,,5.7,3.4,4.6*2A

$GNGSA,A,3,71,72,87,,,,,,,,,,5.7,3.4,4.6*27

$GPGSV,2,1,07,14,53,177,,18,49,066,49,19,45,287,45,21,33,125,*76

$GPGSV,2,2,07,22,80,340,49,24,21,072,37,27,47,242,,,,,*4A

$GLGSV,2,1,07,70,10,053,,71,57,028,49,72,55,268,39,80,15,049,*60

$GLGSV,2,2,07,86,50,184,,87,59,303,51,88,13,331,,,,,*50

$GNRMC,001648.00,A,4434.0415182,N,12316.4872966,W,0.05,354.71,241014,0.00,E,A*0A

$GPZDA,001651.01,24,10,2014,-07,00*4E

$GNVTG,352.0642,T,352.0642,M,0.032,N,0.059,K,A*30

$GNGSA,A,3,18,19,22,,,,,,,,,,5.7,3.4,4.6*2A

$GNGSA,A,3,71,72,87,,,,,,,,,,5.7,3.4,4.6*27

$GPGSV,2,1,07,14,53,177,,18,49,066,49,19,45,287,45,21,33,125,*76

$GPGSV,2,2,07,22,80,340,49,24,21,072,37,27,47,242,,,,,*4A

$GLGSV,2,1,07,70,10,053,,71,57,028,49,72,55,268,39,80,15,049,*60

$GLGSV,2,2,07,86,50,184,,87,59,303,51,88,13,331,,,,,*50

$GNRMC,001649.00,A,4434.0415161,N,12316.4872928,W,0.03,352.06,241014,0.00,E,A*0C

$GPZDA,001652.00,24,10,2014,-07,00*4C

$GNVTG,312.1119,T,312.1119,M,0.004,N,0.008,K,A*31

$GNGSA,A,3,18,19,22,,,,,,,,,,5.7,3.4,4.6*2A

$GNGSA,A,3,71,72,87,,,,,,,,,,5.7,3.4,4.6*27

$GPGSV,2,1,07,14,53,177,,18,49,066,49,19,45,287,45,21,33,125,*76

$GPGSV,2,2,07,22,80,340,49,24,21,072,37,27,47,242,,,,,*4A

$GLGSV,2,1,07,70,10,053,,71,57,028,49,72,55,268,39,80,15,049,*60

$GLGSV,2,2,07,86,50,184,,87,59,303,51,88,13,331,,,,,*50

$GNRMC,001650.00,A,4434.0414997,N,12316.4872825,W,0.00,312.11,241014,0.00,E,A*09

$GPZDA,001653.00,24,10,2014,-07,00*4D

$GNVTG,173.5032,T,173.5032,M,0.054,N,0.100,K,A*3D

$GNGSA,A,3,18,19,22,,,,,,,,,,5.7,3.4,4.6*2A

$GNGSA,A,3,71,72,87,,,,,,,,,,5.7,3.4,4.6*27

$GPGSV,2,1,07,14,53,177,,18,49,066,49,19,45,287,45,21,33,125,*76

$GPGSV,2,2,07,22,80,340,49,24,21,072,36,27,47,242,,,,,*4B

$GLGSV,2,1,07,70,10,053,,71,57,028,49,72,55,268,39,80,15,049,*60

$GLGSV,2,2,07,86,50,184,,87,59,303,51,88,13,331,,,,,*50

$GNRMC,001651.00,A,4434.0414606,N,12316.4872740,W,0.05,173.50,241014,0.00,E,A*06

$GPZDA,001654.00,24,10,2014,-07,00*4A

$GNVTG,301.6183,T,301.6183,M,0.001,N,0.002,K,A*3E

$GNGSA,A,3,18,19,22,,,,,,,,,,5.7,3.4,4.6*2A

$GNGSA,A,3,71,72,87,,,,,,,,,,5.7,3.4,4.6*27

$GPGSV,2,1,07,14,53,177,,18,49,066,49,19,45,287,45,21,33,125,*76

$GPGSV,2,2,07,22,80,340,49,24,21,072,36,27,47,242,,,,,*4B

$GLGSV,2,1,07,70,10,053,,71,57,028,49,72,55,268,40,80,15,049,*6E

$GLGSV,2,2,07,86,50,184,,87,59,303,51,88,13,331,,,,,*50

$GNRMC,001652.00,A,4434.0414408,N,12316.4872577,W,0.00,301.62,241014,0.00,E,A*0C

$GPZDA,001655.00,24,10,2014,-07,00*4B

$GNVTG,334.3832,T,334.3832,M,0.015,N,0.028,K,A*33

$GNGSA,A,3,18,19,22,,,,,,,,,,5.7,3.4,4.6*2A

$GNGSA,A,3,71,72,87,,,,,,,,,,5.7,3.4,4.6*27

$GPGSV,2,1,07,14,53,177,,18,49,066,49,19,45,287,45,21,33,125,*76

$GPGSV,2,2,07,22,80,340,49,24,21,072,31,27,47,242,,,,,*4C

$GLGSV,2,1,07,70,10,053,,71,57,028,49,72,55,268,39,80,15,049,*60

$GLGSV,2,2,07,86,50,184,,87,59,303,51,88,13,331,,,,,*50

$GNRMC,001653.00,A,4434.0414029,N,12316.4872455,W,0.02,334.38,241014,0.00,E,A*00

$GPZDA,001656.01,24,10,2014,-07,00*49

$GNVTG,355.3911,T,355.3911,M,0.041,N,0.076,K,A*39

$GNGSA,A,3,18,19,22,,,,,,,,,,5.7,3.4,4.6*2A

$GNGSA,A,3,71,72,87,,,,,,,,,,5.7,3.4,4.6*27

$GPGSV,2,1,07,14,53,177,,18,49,066,49,19,45,287,45,21,33,125,*76

$GPGSV,2,2,07,22,80,340,49,24,21,072,,27,47,242,,,,,*4E

$GLGSV,2,1,07,70,10,053,,71,57,028,48,72,55,268,39,80,15,049,*61

$GLGSV,2,2,07,86,50,184,,87,59,303,51,88,13,331,,,,,*50

$GNRMC,001654.00,A,4434.0413793,N,12316.4872359,W,0.04,355.39,241014,0.00,E,A*0D

$GPZDA,001657.00,24,10,2014,-07,00*49

$GNVTG,313.1818,T,313.1818,M,0.010,N,0.018,K,A*35

$GNGSA,A,3,18,19,22,,,,,,,,,,5.7,3.4,4.6*2A

$GNGSA,A,3,71,72,87,,,,,,,,,,5.7,3.4,4.6*27

$GPGSV,2,1,07,14,53,177,,18,49,066,49,19,45,287,44,21,33,125,*77

$GPGSV,2,2,07,22,80,340,49,24,21,072,,27,47,242,,,,,*4E

$GLGSV,2,1,07,70,10,053,,71,57,028,48,72,55,268,39,80,15,049,*61

$GLGSV,2,2,07,86,50,184,,87,59,303,51,88,13,331,,,,,*50

$GNRMC,001655.00,A,4434.0413495,N,12316.4872242,W,0.01,313.18,241014,0.00,E,A*06

$GPZDA,001658.00,24,10,2014,-07,00*46

$GNVTG,173.3605,T,173.3605,M,0.047,N,0.088,K,A*3E

$GNGSA,A,3,18,19,22,,,,,,,,,,5.7,3.4,4.6*2A

$GNGSA,A,3,71,72,87,,,,,,,,,,5.7,3.4,4.6*27

$GPGSV,2,1,07,14,53,177,,18,49,066,49,19,45,287,44,21,33,125,*77

$GPGSV,2,2,07,22,80,340,49,24,21,072,,27,47,242,,,,,*4E

$GLGSV,2,1,07,70,10,053,,71,57,028,48,72,55,268,39,80,15,049,*61

$GLGSV,2,2,07,86,50,184,,87,59,303,51,88,13,331,,,,,*50

$GNRMC,001656.00,A,4434.0413061,N,12316.4872100,W,0.05,173.36,241014,0.00,E,A*03

$GPZDA,001659.00,24,10,2014,-07,00*47

$GNVTG,182.9082,T,182.9082,M,0.055,N,0.103,K,A*3F

$GNGSA,A,3,18,19,22,,,,,,,,,,5.7,3.4,4.6*2A

$GNGSA,A,3,71,72,87,,,,,,,,,,5.7,3.4,4.6*27

$GPGSV,2,1,07,14,53,177,,18,49,066,49,19,45,287,45,21,33,125,*76

$GPGSV,2,2,07,22,80,340,49,24,21,072,,27,47,242,,,,,*4E

$GLGSV,2,1,07,70,10,053,,71,57,028,48,72,55,268,39,80,15,049,*61

$GLGSV,2,2,07,86,50,184,,87,59,303,51,88,13,331,,,,,*50

$GNRMC,001657.00,A,4434.0412884,N,12316.4872059,W,0.06,182.91,241014,0.00,E,A*0D

$GPZDA,001700.00,24,10,2014,-07,00*4A

$GNVTG,178.7359,T,178.7359,M,0.052,N,0.097,K,A*34

$GNGSA,A,3,18,19,22,,,,,,,,,,5.7,3.4,4.6*2A

$GNGSA,A,3,71,72,87,,,,,,,,,,5.7,3.4,4.6*27

$GPGSV,2,1,07,14,53,177,,18,49,066,49,19,45,287,44,21,33,125,*77

$GPGSV,2,2,07,22,80,340,49,24,21,072,,27,47,242,,,,,*4E

$GLGSV,2,1,07,70,10,053,,71,57,028,48,72,55,268,39,80,15,049,*61

$GLGSV,2,2,07,86,50,184,,87,59,303,51,88,13,331,,,,,*50

$GNRMC,001658.00,A,4434.0412661,N,12316.4872039,W,0.05,178.74,241014,0.00,E,A*0C

$GPZDA,001701.01,24,10,2014,-07,00*4A

$GNVTG,16.7407,T,16.7407,M,0.004,N,0.008,K,A*31

$GNGSA,A,3,18,19,22,,,,,,,,,,5.7,3.4,4.6*2A

$GNGSA,A,3,71,72,87,,,,,,,,,,5.7,3.4,4.6*27

$GPGSV,2,1,07,14,53,177,,18,49,066,49,19,45,287,45,21,33,125,*76

$GPGSV,2,2,07,22,80,340,49,24,21,072,,27,47,242,,,,,*4E

$GLGSV,2,1,07,70,10,053,,71,57,028,48,72,55,268,38,80,15,049,*60

$GLGSV,2,2,07,86,50,184,,87,59,303,51,88,13,331,,,,,*50

$GNRMC,001659.00,A,4434.0412606,N,12316.4872027,W,0.00,16.74,241014,0.00,E,A*3F

$GPZDA,001702.00,24,10,2014,-07,00*48

$GNVTG,346.1906,T,346.1906,M,0.009,N,0.016,K,A*33

$GNGSA,A,3,18,19,22,,,,,,,,,,5.7,3.4,4.6*2A

$GNGSA,A,3,71,72,87,,,,,,,,,,5.7,3.4,4.6*27

$GPGSV,2,1,07,14,53,177,,18,49,066,49,19,45,287,45,21,33,125,*76

$GPGSV,2,2,07,22,80,340,49,24,21,072,,27,47,241,,,,,*4D

$GLGSV,2,1,07,70,10,053,,71,57,028,48,72,55,268,39,80,15,049,*61

$GLGSV,2,2,07,86,50,184,,87,59,303,51,88,13,331,,,,,*50

$GNRMC,001700.00,A,4434.0412531,N,12316.4872028,W,0.01,346.19,241014,0.00,E,A*06

$GPZDA,001703.00,24,10,2014,-07,00*49

$GNVTG,286.3703,T,286.3703,M,0.006,N,0.011,K,A*3B

$GNGSA,A,3,18,19,22,,,,,,,,,,5.7,3.4,4.6*2A

$GNGSA,A,3,71,72,87,,,,,,,,,,5.7,3.4,4.6*27

$GPGSV,2,1,07,14,53,177,,18,49,066,48,19,45,287,45,21,33,125,*77

$GPGSV,2,2,07,22,80,340,48,24,21,072,,27,47,241,,,,,*4C

$GLGSV,2,1,07,70,10,053,,71,57,028,48,72,55,268,39,80,15,049,*61

$GLGSV,2,2,07,86,50,184,,87,59,303,51,88,13,331,,,,,*50

$GNRMC,001701.00,A,4434.0412574,N,12316.4872080,W,0.01,286.37,241014,0.00,E,A*05

$GPZDA,001704.00,24,10,2014,-07,00*4E

$GNVTG,355.4135,T,355.4135,M,0.027,N,0.050,K,A*3D

$GNGSA,A,3,18,19,22,,,,,,,,,,5.7,3.4,4.6*2A

$GNGSA,A,3,71,72,87,,,,,,,,,,5.7,3.4,4.6*27

$GPGSV,2,1,07,14,53,177,,18,49,066,49,19,45,287,45,21,33,125,*76

$GPGSV,2,2,07,22,80,340,49,24,21,072,,27,47,241,,,,,*4D

$GLGSV,2,1,07,70,10,053,,71,57,028,49,72,55,268,39,80,15,049,*60

$GLGSV,2,2,07,86,50,184,,87,59,303,51,88,13,331,,,,,*50

$GNRMC,001702.00,A,4434.0412800,N,12316.4872119,W,0.03,355.41,241014,0.00,E,A*05

$GPZDA,001705.00,24,10,2014,-07,00*4F

$GNVTG,222.6301,T,222.6301,M,0.012,N,0.022,K,A*3E

$GNGSA,A,3,18,19,22,,,,,,,,,,5.7,3.4,4.6*2A

$GNGSA,A,3,71,72,87,,,,,,,,,,5.7,3.4,4.6*27

$GPGSV,2,1,07,14,53,177,,18,49,066,50,19,45,287,46,21,33,125,*7D

$GPGSV,2,2,07,22,80,340,49,24,21,072,,27,47,241,,,,,*4D

$GLGSV,2,1,07,70,10,053,,71,57,028,50,72,56,268,39,80,15,049,*6B

$GLGSV,2,2,07,86,50,184,,87,59,303,51,88,13,331,,,,,*50

$GNRMC,001703.00,A,4434.0412912,N,12316.4872295,W,0.01,222.63,241014,0.00,E,A*02

$GPZDA,001706.00,24,10,2014,-07,00*4C

$GNVTG,321.6887,T,321.6887,M,0.002,N,0.003,K,A*3C

$GNGSA,A,3,18,19,22,,,,,,,,,,5.7,3.4,4.6*2A

$GNGSA,A,3,71,72,87,,,,,,,,,,5.7,3.4,4.6*27

$GPGSV,2,1,07,14,53,177,,18,49,066,50,19,45,287,46,21,33,125,*7D

$GPGSV,2,2,07,22,80,340,49,24,21,072,,27,47,241,,,,,*4D

$GLGSV,2,1,07,70,10,053,,71,57,028,50,72,56,268,39,80,15,049,*6B

$GLGSV,2,2,07,86,50,184,,87,59,303,51,88,13,331,,,,,*50

$GNRMC,001704.00,A,4434.0412939,N,12316.4872408,W,0.00,321.69,241014,0.00,E,A*07

$GPZDA,001707.00,24,10,2014,-07,00*4D

$GNVTG,178.8706,T,178.8706,M,0.027,N,0.050,K,A*3D

$GNGSA,A,3,18,19,22,,,,,,,,,,5.7,3.4,4.6*2A

$GNGSA,A,3,71,72,87,,,,,,,,,,5.7,3.4,4.6*27

$GPGSV,2,1,07,14,53,177,,18,49,066,50,19,45,287,46,21,33,125,*7D

$GPGSV,2,2,07,22,80,340,49,24,21,072,,27,47,241,,,,,*4D

$GLGSV,2,1,07,70,10,053,,71,57,028,50,72,56,268,39,80,15,049,*6B

$GLGSV,2,2,07,86,50,184,,87,59,303,51,88,13,331,,,,,*50

$GNRMC,001705.00,A,4434.0412873,N,12316.4872472,W,0.03,178.87,241014,0.00,E,A*09

$GPZDA,001708.00,24,10,2014,-07,00*42

$GNVTG,183.7571,T,183.7571,M,0.040,N,0.075,K,A*3B

$GNGSA,A,3,18,19,22,,,,,,,,,,5.7,3.4,4.6*2A

$GNGSA,A,3,71,72,87,,,,,,,,,,5.7,3.4,4.6*27

$GPGSV,2,1,07,14,53,177,,18,49,066,50,19,45,287,46,21,33,125,*7D

$GPGSV,2,2,07,22,80,340,49,24,21,072,,27,47,241,,,,,*4D

$GLGSV,2,1,07,70,10,053,,71,57,028,50,72,56,268,39,80,15,049,*6B

$GLGSV,2,2,07,86,50,184,,87,59,303,51,88,13,331,,,,,*50

$GNRMC,001706.00,A,4434.0412720,N,12316.4872528,W,0.04,183.76,241014,0.00,E,A*00

$GPZDA,001709.00,24,10,2014,-07,00*43

$GNVTG,206.3842,T,206.3842,M,0.011,N,0.020,K,A*3F

$GNGSA,A,3,18,19,22,,,,,,,,,,5.7,3.4,4.6*2A

$GNGSA,A,3,71,72,87,,,,,,,,,,5.7,3.4,4.6*27

$GPGSV,2,1,07,14,53,177,,18,49,066,50,19,45,287,46,21,33,125,*7D

$GPGSV,2,2,07,22,80,340,49,24,21,072,,27,47,241,,,,,*4D

$GLGSV,2,1,07,70,10,053,,71,57,028,50,72,56,268,39,80,15,049,*6B

$GLGSV,2,2,07,86,50,184,,87,59,303,51,88,13,331,,,,,*50

$GNRMC,001707.00,A,4434.0412822,N,12316.4872588,W,0.01,206.38,241014,0.00,E,A*07

$GPZDA,001710.00,24,10,2014,-07,00*4B

$GNVTG,345.0594,T,345.0594,M,0.045,N,0.083,K,A*37

$GNGSA,A,3,18,19,22,,,,,,,,,,5.7,3.4,4.6*2A

$GNGSA,A,3,71,72,87,,,,,,,,,,5.7,3.4,4.6*27

$GPGSV,2,1,07,14,53,177,,18,49,066,50,19,45,287,46,21,33,125,*7D

$GPGSV,2,2,07,22,80,340,49,24,21,072,,27,47,241,,,,,*4D

$GLGSV,2,1,07,70,10,053,,71,57,028,50,72,56,268,39,80,15,049,*6B

$GLGSV,2,2,07,86,50,184,,87,59,303,51,88,13,331,,,,,*50

$GNRMC,001708.00,A,4434.0412818,N,12316.4872599,W,0.04,345.06,241014,0.00,E,A*0F

$GPZDA,001711.00,24,10,2014,-07,00*4A

$GNVTG,355.7551,T,355.7551,M,0.051,N,0.095,K,A*35

$GNGSA,A,3,18,19,22,,,,,,,,,,5.7,3.4,4.6*2A

$GNGSA,A,3,71,72,87,,,,,,,,,,5.7,3.4,4.6*27

$GPGSV,2,1,07,14,53,177,,18,49,066,50,19,45,287,46,21,33,125,*7D

$GPGSV,2,2,07,22,80,340,49,24,21,072,,27,47,241,,,,,*4D

$GLGSV,2,1,07,70,10,053,,71,57,028,50,72,56,268,38,80,15,049,*6A

$GLGSV,2,2,07,86,50,184,,87,59,303,51,88,13,331,,,,,*50

$GNRMC,001709.00,A,4434.0412875,N,12316.4872607,W,0.05,355.76,241014,0.00,E,A*06

$GPZDA,001712.00,24,10,2014,-07,00*49

$GNVTG,62.6325,T,62.6325,M,0.005,N,0.008,K,A*30

$GNGSA,A,3,18,19,22,,,,,,,,,,5.7,3.4,4.6*2A

$GNGSA,A,3,71,72,87,,,,,,,,,,5.7,3.4,4.6*27

$GPGSV,2,1,07,14,53,177,,18,49,066,50,19,45,287,46,21,33,125,*7D

$GPGSV,2,2,07,22,80,340,49,24,21,072,,27,47,241,,,,,*4D

$GLGSV,2,1,07,70,10,053,,71,57,028,50,72,56,268,38,80,15,049,*6A

$GLGSV,2,2,07,86,50,184,,87,59,303,52,88,13,331,,,,,*53

$GNRMC,001710.00,A,4434.0412804,N,12316.4872589,W,0.00,62.63,241014,0.00,E,A*3B

$GPZDA,001713.00,24,10,2014,-07,00*48

$GNVTG,171.1400,T,171.1400,M,0.041,N,0.076,K,A*39

$GNGSA,A,3,18,19,22,,,,,,,,,,5.7,3.4,4.6*2A

$GNGSA,A,3,71,72,87,,,,,,,,,,5.7,3.4,4.6*27

$GPGSV,2,1,07,14,53,177,,18,49,066,50,19,45,287,46,21,33,125,*7D

$GPGSV,2,2,07,22,80,340,49,24,21,072,,27,47,241,,,,,*4D

$GLGSV,2,1,07,70,10,053,,71,57,028,50,72,56,268,38,80,15,049,*6A

$GLGSV,2,2,07,86,50,184,,87,59,303,52,88,13,331,,,,,*53

$GNRMC,001711.00,A,4434.0412662,N,12316.4872541,W,0.04,171.14,241014,0.00,E,A*07

$GPZDA,001714.00,24,10,2014,-07,00*4F

$GNVTG,186.1552,T,186.1552,M,0.008,N,0.015,K,A*31

$GNGSA,A,3,18,19,22,,,,,,,,,,5.7,3.4,4.6*2A

$GNGSA,A,3,71,72,87,,,,,,,,,,5.7,3.4,4.6*27

$GPGSV,2,1,07,14,53,177,,18,49,066,50,19,45,287,46,21,33,125,*7D

$GPGSV,2,2,07,22,80,340,49,24,21,072,,27,47,241,,,,,*4D

$GLGSV,2,1,07,70,10,053,,71,57,028,50,72,56,268,38,80,15,049,*6A

$GLGSV,2,2,07,86,50,184,,87,59,303,52,88,13,331,,,,,*53

$GNRMC,001712.00,A,4434.0412716,N,12316.4872519,W,0.01,186.16,241014,0.00,E,A*04

$GPZDA,001715.00,24,10,2014,-07,00*4E

$GNVTG,340.0739,T,340.0739,M,0.017,N,0.032,K,A*3A

$GNGSA,A,3,18,19,22,,,,,,,,,,5.7,3.4,4.6*2A

$GNGSA,A,3,71,72,87,,,,,,,,,,5.7,3.4,4.6*27

$GPGSV,2,1,07,14,53,177,,18,49,066,50,19,45,287,46,21,33,125,*7D

$GPGSV,2,2,07,22,80,341,49,24,21,072,,27,47,241,,,,,*4C

$GLGSV,2,1,07,70,10,053,,71,57,028,50,72,56,268,38,80,15,049,*6A

$GLGSV,2,2,07,86,50,184,,87,59,303,52,88,13,331,,,,,*53

$GNRMC,001713.00,A,4434.0412857,N,12316.4872572,W,0.02,340.07,241014,0.00,E,A*09

$GPZDA,001716.00,24,10,2014,-07,00*4D

$GNVTG,323.3145,T,323.3145,M,0.015,N,0.027,K,A*3C

$GNGSA,A,3,18,19,22,,,,,,,,,,5.7,3.4,4.6*2A

$GNGSA,A,3,71,72,87,,,,,,,,,,5.7,3.4,4.6*27

$GPGSV,2,1,07,14,53,177,,18,49,066,50,19,45,287,46,21,33,125,*7D

$GPGSV,2,2,07,22,80,341,49,24,21,072,,27,47,241,,,,,*4C

$GLGSV,2,1,07,70,10,053,,71,57,028,50,72,56,268,38,80,15,049,*6A

$GLGSV,2,2,07,86,50,184,,87,59,303,51,88,13,331,,,,,*50

$GNRMC,001714.00,A,4434.0412873,N,12316.4872594,W,0.01,323.31,241014,0.00,E,A*03

$GPZDA,001717.00,24,10,2014,-07,00*4C

$GNVTG,178.0296,T,178.0296,M,0.047,N,0.087,K,A*31

$GNGSA,A,3,18,19,22,,,,,,,,,,5.7,3.4,4.6*2A

$GNGSA,A,3,71,72,87,,,,,,,,,,5.7,3.4,4.6*27

$GPGSV,2,1,07,14,53,177,,18,49,066,50,19,45,287,47,21,33,125,*7C

$GPGSV,2,2,07,22,80,341,49,24,21,072,,27,47,241,,,,,*4C

$GLGSV,2,1,07,70,10,053,,71,57,028,50,72,56,268,38,80,15,049,*6A

$GLGSV,2,2,07,86,50,184,,87,59,303,51,88,13,331,,,,,*50

$GNRMC,001715.00,A,4434.0412699,N,12316.4872600,W,0.05,178.03,241014,0.00,E,A*0F

$GPZDA,001718.00,24,10,2014,-07,00*43

$GNVTG,215.1018,T,215.1018,M,0.007,N,0.013,K,A*38

$GNGSA,A,3,18,19,22,,,,,,,,,,5.7,3.4,4.6*2A

$GNGSA,A,3,71,72,87,,,,,,,,,,5.7,3.4,4.6*27

$GPGSV,2,1,07,14,53,177,,18,49,066,50,19,45,287,47,21,33,125,*7C

$GPGSV,2,2,07,22,80,341,49,24,21,072,,27,47,241,,,,,*4C

$GLGSV,2,1,07,70,10,053,,71,57,028,50,72,56,268,38,80,15,049,*6A

$GLGSV,2,2,07,86,50,184,,87,59,303,51,88,13,331,,,,,*50

$GNRMC,001716.00,A,4434.0412468,N,12316.4872580,W,0.01,215.10,241014,0.00,E,A*05

$GPZDA,001719.00,24,10,2014,-07,00*42

$GNVTG,170.6417,T,170.6417,M,0.019,N,0.035,K,A*33

$GNGSA,A,3,18,19,22,,,,,,,,,,5.7,3.4,4.6*2A

$GNGSA,A,3,71,72,87,,,,,,,,,,5.7,3.4,4.6*27

$GPGSV,2,1,07,14,53,177,,18,49,066,50,19,45,287,47,21,33,125,*7C

$GPGSV,2,2,07,22,80,341,49,24,21,072,,27,47,241,,,,,*4C

$GLGSV,2,1,07,70,10,053,,71,57,028,50,72,56,268,38,80,15,049,*6A

$GLGSV,2,2,07,86,50,184,,87,59,303,51,88,13,331,,,,,*50

$GNRMC,001717.00,A,4434.0412481,N,12316.4872582,W,0.02,170.64,241014,0.00,E,A*01

$GPZDA,001720.00,24,10,2014,-07,00*48

$GNVTG,144.6376,T,144.6376,M,0.012,N,0.022,K,A*3E

$GNGSA,A,3,18,19,22,,,,,,,,,,5.7,3.4,4.6*2A

$GNGSA,A,3,71,72,87,,,,,,,,,,5.7,3.4,4.6*27

$GPGSV,2,1,07,14,53,177,,18,49,066,50,19,45,287,47,21,33,125,*7C

$GPGSV,2,2,07,22,80,341,49,24,21,072,35,27,47,241,,,,,*4A

$GLGSV,2,1,07,70,10,053,,71,57,028,50,72,56,268,38,80,15,049,*6A

$GLGSV,2,2,07,86,50,184,,87,59,303,51,88,13,331,,,,,*50

$GNRMC,001718.00,A,4434.0412304,N,12316.4872551,W,0.01,144.64,241014,0.00,E,A*0E

$GPZDA,001721.00,24,10,2014,-07,00*49

$GNVTG,353.4632,T,353.4632,M,0.040,N,0.073,K,A*3D

$GNGSA,A,3,18,19,22,,,,,,,,,,5.7,3.4,4.6*2A

$GNGSA,A,3,71,72,87,,,,,,,,,,5.7,3.4,4.6*27

$GPGSV,2,1,07,14,53,177,,18,49,066,50,19,45,287,47,21,33,125,*7C

$GPGSV,2,2,07,22,80,341,49,24,21,072,34,27,47,241,,,,,*4B

$GLGSV,2,1,07,70,10,053,,71,57,028,50,72,56,268,39,80,15,049,*6B

$GLGSV,2,2,07,86,50,184,,87,59,303,51,88,13,331,,,,,*50

$GNRMC,001719.00,A,4434.0412130,N,12316.4872527,W,0.04,353.46,241014,0.00,E,A*0A

$GPZDA,001722.00,24,10,2014,-07,00*4A

$GNVTG,110.6346,T,110.6346,M,0.003,N,0.005,K,A*3B

$GNGSA,A,3,18,19,22,,,,,,,,,,5.7,3.4,4.6*2A

$GNGSA,A,3,71,72,87,,,,,,,,,,5.7,3.4,4.6*27

$GPGSV,2,1,07,14,53,177,,18,49,066,50,19,45,287,47,21,33,125,*7C

$GPGSV,2,2,07,22,80,341,49,24,21,072,34,27,47,241,,,,,*4B

$GLGSV,2,1,07,70,10,053,,71,57,028,50,72,56,268,39,80,15,049,*6B

$GLGSV,2,2,07,86,50,184,,87,59,303,51,88,13,331,,,,,*50

$GNRMC,001720.00,A,4434.0411929,N,12316.4872493,W,0.00,110.63,241014,0.00,E,A*0B

$GPZDA,001723.00,24,10,2014,-07,00*4B

$GNVTG,167.7848,T,167.7848,M,0.024,N,0.044,K,A*3B

$GNGSA,A,3,18,19,22,,,,,,,,,,5.7,3.4,4.6*2A

$GNGSA,A,3,71,72,87,,,,,,,,,,5.7,3.4,4.6*27

$GPGSV,2,1,07,14,53,177,,18,49,066,50,19,45,287,47,21,33,125,*7C

$GPGSV,2,2,07,22,80,341,49,24,21,071,37,27,47,241,,,,,*4B

$GLGSV,2,1,07,70,10,053,,71,57,028,50,72,56,268,39,80,15,049,*6B

$GLGSV,2,2,07,86,50,184,,87,59,303,51,88,13,331,,,,,*50

$GNRMC,001721.00,A,4434.0411741,N,12316.4872436,W,0.02,167.78,241014,0.00,E,A*0D

$GPZDA,001724.00,24,10,2014,-07,00*4C

$GNVTG,179.1987,T,179.1987,M,0.049,N,0.090,K,A*39

$GNGSA,A,3,18,19,22,,,,,,,,,,5.7,3.4,4.6*2A

$GNGSA,A,3,71,72,87,,,,,,,,,,5.7,3.4,4.6*27

$GPGSV,2,1,07,14,53,177,,18,49,066,50,19,45,287,47,21,33,125,*7C

$GPGSV,2,2,07,22,80,341,49,24,21,071,37,27,47,241,,,,,*4B

$GLGSV,2,1,07,70,10,053,,71,57,028,50,72,56,268,39,80,15,049,*6B

$GLGSV,2,2,07,86,50,184,,87,59,303,51,88,13,331,,,,,*50

$GNRMC,001722.00,A,4434.0411854,N,12316.4872456,W,0.05,179.20,241014,0.00,E,A*06

$GPZDA,001725.00,24,10,2014,-07,00*4D

$GNVTG,175.7860,T,175.7860,M,0.062,N,0.115,K,A*3C

$GNGSA,A,3,18,19,22,,,,,,,,,,5.7,3.4,4.6*2A

$GNGSA,A,3,71,72,87,,,,,,,,,,5.7,3.4,4.6*27

$GPGSV,2,1,07,14,53,177,,18,49,066,50,19,45,287,47,21,33,125,*7C

$GPGSV,2,2,07,22,80,341,49,24,21,071,38,27,47,241,,,,,*44

$GLGSV,2,1,07,70,10,053,,71,57,028,50,72,56,268,39,80,15,049,*6B

$GLGSV,2,2,07,86,50,184,,87,59,303,51,88,13,331,,,,,*50

$GNRMC,001723.00,A,4434.0411940,N,12316.4872507,W,0.06,175.79,241014,0.00,E,A*05

$GPZDA,001726.00,24,10,2014,-07,00*4E

$GNVTG,320.2325,T,320.2325,M,0.009,N,0.016,K,A*33

$GNGSA,A,3,18,19,22,,,,,,,,,,5.7,3.4,4.6*2A

$GNGSA,A,3,71,72,87,,,,,,,,,,5.7,3.4,4.6*27

$GPGSV,2,1,07,14,53,177,,18,49,066,50,19,45,287,47,21,33,125,*7C

$GPGSV,2,2,07,22,80,341,49,24,21,071,38,27,47,241,,,,,*44

$GLGSV,2,1,07,70,10,053,,71,57,028,50,72,56,268,39,80,15,049,*6B

$GLGSV,2,2,07,86,50,184,,87,59,303,51,88,13,331,,,,,*50

$GNRMC,001724.00,A,4434.0412050,N,12316.4872537,W,0.01,320.23,241014,0.00,E,A*00

$GPZDA,001727.00,24,10,2014,-07,00*4F

$GNVTG,345.0550,T,345.0550,M,0.027,N,0.050,K,A*3D

$GNGSA,A,3,18,19,22,,,,,,,,,,5.7,3.4,4.6*2A

$GNGSA,A,3,71,72,87,,,,,,,,,,5.7,3.4,4.6*27

$GPGSV,2,1,07,14,53,177,,18,49,066,50,19,45,287,47,21,33,125,*7C

$GPGSV,2,2,07,22,80,341,49,24,21,071,37,27,47,241,,,,,*4B

$GLGSV,2,1,07,70,10,053,,71,57,028,50,72,56,268,39,80,15,049,*6B

$GLGSV,2,2,07,86,50,184,,87,59,303,51,88,13,331,,,,,*50

$GNRMC,001725.00,A,4434.0412194,N,12316.4872585,W,0.03,345.06,241014,0.00,E,A*07

$GPZDA,001728.00,24,10,2014,-07,00*40

$GNVTG,141.8365,T,141.8365,M,0.007,N,0.012,K,A*39

$GNGSA,A,3,18,19,22,,,,,,,,,,5.7,3.4,4.6*2A

$GNGSA,A,3,71,72,87,,,,,,,,,,5.7,3.4,4.6*27

$GPGSV,2,1,07,14,53,177,,18,49,066,50,19,45,287,47,21,33,125,*7C

$GPGSV,2,2,07,22,80,341,49,24,21,071,37,27,47,241,,,,,*4B

$GLGSV,2,1,07,70,10,053,,71,57,028,51,72,56,268,39,80,15,049,*6A

$GLGSV,2,2,07,86,50,184,,87,59,303,51,88,13,331,,,,,*50

$GNRMC,001726.00,A,4434.0412292,N,12316.4872632,W,0.01,141.84,241014,0.00,E,A*00

$GPZDA,001729.00,24,10,2014,-07,00*41

$GNVTG,3.8778,T,3.8778,M,0.015,N,0.028,K,A*33

$GNGSA,A,3,18,19,22,,,,,,,,,,5.7,3.4,4.6*2A

$GNGSA,A,3,71,72,87,,,,,,,,,,5.7,3.4,4.6*27

$GPGSV,2,1,07,14,53,177,,18,49,066,50,19,45,287,47,21,33,125,*7C

$GPGSV,2,2,07,22,80,341,49,24,21,071,36,27,47,241,,,,,*4A

$GLGSV,2,1,07,70,10,053,,71,57,028,51,72,56,268,40,80,15,049,*64

$GLGSV,2,2,07,86,50,184,,87,59,303,51,88,13,331,,,,,*50

$GNRMC,001727.00,A,4434.0412605,N,12316.4872682,W,0.02,3.88,241014,0.00,E,A*08

$GPZDA,001730.00,24,10,2014,-07,00*49

$GNVTG,155.2749,T,155.2749,M,0.056,N,0.103,K,A*3C

$GNGSA,A,3,18,19,22,,,,,,,,,,5.7,3.4,4.6*2A

$GNGSA,A,3,71,72,87,,,,,,,,,,5.7,3.4,4.6*27

$GPGSV,2,1,07,14,53,177,,18,49,066,48,19,45,287,47,21,33,125,*75

$GPGSV,2,2,07,22,80,341,49,24,21,071,41,27,47,241,,,,,*4A

$GLGSV,2,1,07,70,10,053,,71,57,028,51,72,56,268,38,80,15,049,*6B

$GLGSV,2,2,07,86,50,184,,87,59,303,51,88,13,331,,,,,*50

$GNRMC,001728.00,A,4434.0412503,N,12316.4872564,W,0.06,155.27,241014,0.00,E,A*0A

$GPZDA,001731.00,24,10,2014,-07,00*48

$GNVTG,0.6329,T,0.6329,M,0.002,N,0.004,K,A*3B

$GNGSA,A,3,18,19,22,,,,,,,,,,5.7,3.4,4.6*2A

$GNGSA,A,3,71,72,87,,,,,,,,,,5.7,3.4,4.6*27

$GPGSV,2,1,07,14,53,177,,18,49,066,46,19,45,287,47,21,33,125,*7B

$GPGSV,2,2,07,22,80,341,50,24,21,071,43,27,47,241,,,,,*40

$GLGSV,2,1,07,70,10,053,,71,57,028,51,72,56,268,39,80,15,049,*6A

$GLGSV,2,2,07,86,50,184,,87,59,303,51,88,13,331,,,,,*50

$GNRMC,001729.00,A,4434.0412429,N,12316.4872527,W,0.00,0.63,241014,0.00,E,A*02

$GPZDA,001732.00,24,10,2014,-07,00*4B

$GNVTG,322.6884,T,322.6884,M,0.015,N,0.028,K,A*33

$GNGSA,A,3,18,19,22,,,,,,,,,,5.7,3.4,4.6*2A

$GNGSA,A,3,71,72,87,,,,,,,,,,5.7,3.4,4.6*27

$GPGSV,2,1,07,14,53,177,,18,49,066,47,19,45,287,47,21,33,125,*7A

$GPGSV,2,2,07,22,80,341,50,24,21,071,42,27,47,241,,,,,*41

$GLGSV,2,1,07,70,10,053,,71,57,028,51,72,56,268,39,80,15,049,*6A

$GLGSV,2,2,07,86,50,184,,87,59,303,51,88,13,331,,,,,*50

$GNRMC,001730.00,A,4434.0412381,N,12316.4872539,W,0.02,322.69,241014,0.00,E,A*0B

$GPZDA,001733.00,24,10,2014,-07,00*4A

$GNVTG,177.7251,T,177.7251,M,0.031,N,0.057,K,A*3D

$GNGSA,A,3,18,19,22,,,,,,,,,,5.7,3.4,4.6*2A

$GNGSA,A,3,71,72,87,,,,,,,,,,5.7,3.4,4.6*27

$GPGSV,2,1,07,14,53,177,,18,49,066,47,19,45,287,46,21,33,125,*7B

$GPGSV,2,2,07,22,80,341,49,24,21,071,42,27,47,241,,,,,*49

$GLGSV,2,1,07,70,10,053,,71,57,028,50,72,56,268,38,80,15,049,*6A

$GLGSV,2,2,07,86,50,184,,87,59,303,51,88,13,331,,,,,*50

$GNRMC,001731.00,A,4434.0412224,N,12316.4872527,W,0.03,177.73,241014,0.00,E,A*03

$GPZDA,001734.01,24,10,2014,-07,00*4C

$GNVTG,197.3497,T,197.3497,M,0.020,N,0.038,K,A*34

$GNGSA,A,3,18,19,22,,,,,,,,,,5.7,3.4,4.6*2A

$GNGSA,A,3,71,72,87,,,,,,,,,,5.7,3.4,4.6*27

$GPGSV,2,1,07,14,53,177,,18,49,066,47,19,45,287,47,21,33,125,*7A

$GPGSV,2,2,07,22,80,341,50,24,21,071,41,27,47,241,,,,,*42

$GLGSV,2,1,07,70,10,053,,71,57,028,49,72,56,268,39,80,15,049,*63

$GLGSV,2,2,07,86,50,184,,87,59,303,51,88,13,331,,,,,*50

$GNRMC,001732.00,A,4434.0412579,N,12316.4872523,W,0.02,197.35,241014,0.00,E,A*06

$GPZDA,001735.00,24,10,2014,-07,00*4C

$GNVTG,176.4475,T,176.4475,M,0.011,N,0.020,K,A*3F

$GNGSA,A,3,18,19,22,,,,,,,,,,5.7,3.4,4.6*2A

$GNGSA,A,3,71,72,87,,,,,,,,,,5.7,3.4,4.6*27

$GPGSV,2,1,07,14,53,177,,18,49,066,45,19,45,287,46,21,33,125,*79

$GPGSV,2,2,07,22,80,342,49,24,21,071,39,27,47,241,,,,,*46

$GLGSV,2,1,07,70,10,053,,71,57,028,48,72,56,269,38,80,15,049,*62

$GLGSV,2,2,07,86,50,184,,87,59,303,51,88,13,331,,,,,*50

$GNRMC,001733.00,A,4434.0412531,N,12316.4872428,W,0.01,176.45,241014,0.00,E,A*0A

$GPZDA,001736.00,24,10,2014,-07,00*4F

$GNVTG,157.5013,T,157.5013,M,0.011,N,0.021,K,A*3E

$GNGSA,A,3,18,19,22,,,,,,,,,,5.7,3.4,4.6*2A

$GNGSA,A,3,71,72,87,,,,,,,,,,5.7,3.4,4.6*27

$GPGSV,2,1,07,14,53,177,,18,49,066,46,19,45,287,47,21,33,125,*7B

$GPGSV,2,2,07,22,80,342,49,24,21,071,40,27,47,241,,,,,*48

$GLGSV,2,1,07,70,10,053,,71,57,028,49,72,56,269,38,80,15,049,*63

$GLGSV,2,2,07,86,50,184,,87,59,303,51,88,13,331,,,,,*50

$GNRMC,001734.00,A,4434.0412454,N,12316.4872380,W,0.01,157.50,241014,0.00,E,A*0D

$GPZDA,001737.00,24,10,2014,-07,00*4E

$GNVTG,178.2009,T,178.2009,M,0.011,N,0.019,K,A*35

$GNGSA,A,3,18,19,22,,,,,,,,,,5.7,3.4,4.6*2A

$GNGSA,A,3,71,72,87,,,,,,,,,,5.7,3.4,4.6*27

$GPGSV,2,1,07,14,53,177,,18,49,066,46,19,45,287,47,21,33,125,*7B

$GPGSV,2,2,07,22,80,342,49,24,21,071,39,27,47,241,,,,,*46

$GLGSV,2,1,07,70,10,053,,71,57,028,49,72,56,269,38,80,15,049,*63

$GLGSV,2,2,07,86,50,184,,87,59,303,50,88,13,331,,,,,*51

$GNRMC,001735.00,A,4434.0412381,N,12316.4872321,W,0.01,178.20,241014,0.00,E,A*02

$GPZDA,001738.00,24,10,2014,-07,00*41

$GNVTG,312.6235,T,312.6235,M,0.001,N,0.002,K,A*3E

$GNGSA,A,3,18,19,22,,,,,,,,,,5.7,3.4,4.6*2A

$GNGSA,A,3,71,72,87,,,,,,,,,,5.7,3.4,4.6*27

$GPGSV,2,1,07,14,53,177,,18,49,066,46,19,45,287,47,21,33,125,*7B

$GPGSV,2,2,07,22,80,342,49,24,21,071,40,27,47,241,,,,,*48

$GLGSV,2,1,07,70,10,053,,71,57,028,49,72,56,269,38,80,15,049,*63

$GLGSV,2,2,07,86,50,184,,87,59,303,51,88,13,331,,,,,*50

$GNRMC,001736.00,A,4434.0412322,N,12316.4872338,W,0.00,312.62,241014,0.00,E,A*09

$GPZDA,001739.01,24,10,2014,-07,00*41

$GNVTG,118.6610,T,118.6610,M,0.007,N,0.012,K,A*39

$GNGSA,A,3,18,19,22,,,,,,,,,,5.7,3.4,4.6*2A

$GNGSA,A,3,71,72,87,,,,,,,,,,5.7,3.4,4.6*27

$GPGSV,2,1,07,14,53,177,,18,49,066,46,19,45,287,47,21,33,125,*7B

$GPGSV,2,2,07,22,80,342,49,24,21,071,40,27,47,241,,,,,*48

$GLGSV,2,1,07,70,10,053,,71,57,028,49,72,56,269,38,80,15,049,*63

$GLGSV,2,2,07,86,50,184,,87,59,303,50,88,13,331,,,,,*51

$GNRMC,001737.00,A,4434.0412469,N,12316.4872368,W,0.01,118.66,241014,0.00,E,A*08

$GPZDA,001740.00,24,10,2014,-07,00*4E

$GNVTG,182.5536,T,182.5536,M,0.020,N,0.037,K,A*3B

$GNGSA,A,3,18,19,22,,,,,,,,,,5.7,3.4,4.6*2A

$GNGSA,A,3,71,72,87,,,,,,,,,,5.7,3.4,4.6*27

$GPGSV,2,1,07,14,53,177,,18,49,066,46,19,45,287,47,21,33,125,*7B

$GPGSV,2,2,07,22,80,342,49,24,21,071,40,27,47,241,,,,,*48

$GLGSV,2,1,07,70,10,053,,71,57,028,49,72,56,269,38,80,15,049,*63

$GLGSV,2,2,07,86,50,184,,87,59,303,51,88,13,331,,,,,*50

$GNRMC,001738.00,A,4434.0412367,N,12316.4872388,W,0.02,182.55,241014,0.00,E,A*00

$GPZDA,001741.00,24,10,2014,-07,00*4F

$GNVTG,165.6828,T,165.6828,M,0.029,N,0.053,K,A*30

$GNGSA,A,3,18,19,22,,,,,,,,,,5.7,3.4,4.6*2A

$GNGSA,A,3,71,72,87,,,,,,,,,,5.7,3.4,4.6*27

$GPGSV,2,1,07,14,53,177,,18,49,066,46,19,45,287,47,21,33,125,*7B

$GPGSV,2,2,07,22,80,342,49,24,21,071,39,27,47,241,,,,,*46

$GLGSV,2,1,07,70,10,053,,71,57,028,49,72,56,269,38,80,15,049,*63

$GLGSV,2,2,07,86,50,184,,87,59,303,50,88,13,331,,,,,*51

$GNRMC,001739.00,A,4434.0412224,N,12316.4872388,W,0.03,165.68,241014,0.00,E,A*01

$GPZDA,001742.00,24,10,2014,-07,00*4C

$GNVTG,188.5665,T,188.5665,M,0.016,N,0.029,K,A*31

$GNGSA,A,3,18,19,22,,,,,,,,,,5.7,3.4,4.6*2A

$GNGSA,A,3,71,72,87,,,,,,,,,,5.7,3.4,4.6*27

$GPGSV,2,1,07,14,53,177,,18,49,066,47,19,45,287,47,21,33,125,*7A

$GPGSV,2,2,07,22,80,342,50,24,21,071,40,27,47,241,,,,,*40

$GLGSV,2,1,07,70,10,053,,71,57,028,49,72,56,269,37,80,15,049,*6C

$GLGSV,2,2,07,86,50,184,,87,59,303,50,88,13,331,,,,,*51

$GNRMC,001740.00,A,4434.0412187,N,12316.4872402,W,0.02,188.57,241014,0.00,E,A*0E

$GPZDA,001743.00,24,10,2014,-07,00*4D

$GNVTG,164.3055,T,164.3055,M,0.015,N,0.029,K,A*32

$GNGSA,A,3,18,19,22,,,,,,,,,,5.7,3.4,4.6*2A

$GNGSA,A,3,71,72,87,,,,,,,,,,5.7,3.4,4.6*27

$GPGSV,2,1,07,14,53,177,,18,49,066,46,19,45,287,47,21,33,125,*7B

$GPGSV,2,2,07,22,80,342,50,24,21,071,40,27,47,241,,,,,*40

$GLGSV,2,1,07,70,10,053,,71,57,028,49,72,56,269,37,80,15,049,*6C

$GLGSV,2,2,07,86,50,184,,87,59,303,50,88,13,331,,,,,*51

$GNRMC,001741.00,A,4434.0412105,N,12316.4872394,W,0.02,164.31,241014,0.00,E,A*0F

$GPZDA,001744.00,24,10,2014,-07,00*4A

$GNVTG,348.4913,T,348.4913,M,0.022,N,0.040,K,A*39

$GNGSA,A,3,18,19,22,,,,,,,,,,5.7,3.4,4.6*2A

$GNGSA,A,3,71,72,87,,,,,,,,,,5.7,3.4,4.6*27

$GPGSV,2,1,07,14,54,177,,18,49,066,48,19,45,287,48,21,33,125,*7D

$GPGSV,2,2,07,22,80,342,51,24,21,071,41,27,47,241,,,,,*40

$GLGSV,2,1,06,71,57,028,49,72,56,269,37,80,15,049,,86,49,184,*63

$GLGSV,2,2,06,87,59,303,50,88,13,331,,,,,,,,,*66

$GNRMC,001742.00,A,4434.0412364,N,12316.4872398,W,0.02,348.49,241014,0.00,E,A*06

$GPZDA,001745.01,24,10,2014,-07,00*4A

$GNVTG,232.9643,T,232.9643,M,0.007,N,0.013,K,A*38

$GNGSA,A,3,18,19,22,,,,,,,,,,5.7,3.4,4.6*2A

$GNGSA,A,3,71,72,87,,,,,,,,,,5.7,3.4,4.6*27

$GPGSV,2,1,07,14,54,177,,18,49,066,47,19,45,287,48,21,33,125,*72

$GPGSV,2,2,07,22,80,342,50,24,21,071,41,27,47,241,,,,,*41

$GLGSV,2,1,06,71,57,028,49,72,56,269,37,80,15,049,,86,49,184,*63

$GLGSV,2,2,06,87,59,303,50,88,13,331,,,,,,,,,*66

$GNRMC,001743.00,A,4434.0412391,N,12316.4872421,W,0.01,232.96,241014,0.00,E,A*05

$GPZDA,001746.00,24,10,2014,-07,00*48

$GNVTG,324.9507,T,324.9507,M,0.009,N,0.016,K,A*33

$GNGSA,A,3,18,19,22,,,,,,,,,,5.7,3.4,4.6*2A

$GNGSA,A,3,71,72,87,,,,,,,,,,5.7,3.4,4.6*27

$GPGSV,2,1,07,14,54,177,,18,49,066,45,19,45,287,46,21,33,125,*7E

$GPGSV,2,2,07,22,80,342,49,24,21,071,39,27,47,241,,,,,*46

$GLGSV,2,1,06,71,57,028,49,72,56,269,37,80,15,049,,86,49,184,*63

$GLGSV,2,2,06,87,59,303,50,88,13,331,,,,,,,,,*66

$GNRMC,001744.00,A,4434.0412337,N,12316.4872434,W,0.01,324.95,241014,0.00,E,A*0F

$GPZDA,001747.00,24,10,2014,-07,00*49

$GNVTG,186.9287,T,186.9287,M,0.042,N,0.079,K,A*35

$GNGSA,A,3,18,19,22,,,,,,,,,,5.7,3.4,4.6*2A

$GNGSA,A,3,71,72,87,,,,,,,,,,5.7,3.4,4.6*27

$GPGSV,2,1,07,14,54,177,,18,49,066,47,19,45,287,47,21,33,125,*7D

$GPGSV,2,2,07,22,80,342,50,24,21,071,41,27,47,241,,,,,*41

$GLGSV,2,1,06,71,57,028,49,72,56,269,37,80,15,049,,86,49,184,*63

$GLGSV,2,2,06,87,59,303,50,88,13,331,,,,,,,,,*66

$GNRMC,001745.00,A,4434.0412171,N,12316.4872473,W,0.04,186.93,241014,0.00,E,A*04

$GPZDA,001748.00,24,10,2014,-07,00*46

$GNVTG,167.6960,T,167.6960,M,0.032,N,0.059,K,A*30

$GNGSA,A,3,18,19,22,,,,,,,,,,5.7,3.4,4.6*2A

$GNGSA,A,3,71,72,87,,,,,,,,,,5.7,3.4,4.6*27

$GPGSV,2,1,07,14,54,177,,18,49,066,47,19,45,287,47,21,33,125,*7D

$GPGSV,2,2,07,22,80,342,50,24,21,071,40,27,47,241,,,,,*40

$GLGSV,2,1,06,71,57,028,49,72,56,269,37,80,15,049,,86,49,184,*63

$GLGSV,2,2,06,87,59,303,50,88,13,331,,,,,,,,,*66

$GNRMC,001746.00,A,4434.0412020,N,12316.4872493,W,0.03,167.70,241014,0.00,E,A*09

$GPZDA,001749.00,24,10,2014,-07,00*47

$GNVTG,355.4167,T,355.4167,M,0.035,N,0.065,K,A*38

$GNGSA,A,3,18,19,22,,,,,,,,,,5.7,3.4,4.6*2A

$GNGSA,A,3,71,72,87,,,,,,,,,,5.7,3.4,4.6*27

$GPGSV,2,1,07,14,54,177,,18,49,066,47,19,45,287,47,21,33,125,*7D

$GPGSV,2,2,07,22,80,342,50,24,21,071,40,27,47,241,,,,,*40

$GLGSV,2,1,06,71,57,028,49,72,56,269,37,80,15,049,,86,49,184,*63

$GLGSV,2,2,06,87,59,303,50,88,13,331,,,,,,,,,*66

$GNRMC,001747.00,A,4434.0412154,N,12316.4872503,W,0.04,355.42,241014,0.00,E,A*07

$GPZDA,001750.01,24,10,2014,-07,00*4E

$GNVTG,353.1021,T,353.1021,M,0.042,N,0.077,K,A*3B

$GNGSA,A,3,18,19,22,,,,,,,,,,5.8,3.5,4.6*24

$GNGSA,A,3,71,72,87,,,,,,,,,,5.8,3.5,4.6*29

$GPGSV,2,1,07,14,54,177,,18,48,066,47,19,45,287,47,21,33,125,*7C

$GPGSV,2,2,07,22,80,342,49,24,21,071,40,27,47,241,,,,,*48

$GLGSV,2,1,06,71,57,028,49,72,56,269,37,80,15,049,,86,49,184,*63

$GLGSV,2,2,06,87,59,303,50,88,13,331,,,,,,,,,*66

$GNRMC,001748.00,A,4434.0412197,N,12316.4872555,W,0.04,353.10,241014,0.00,E,A*05

$GPZDA,001751.00,24,10,2014,-07,00*4E

$GNVTG,190.1069,T,190.1069,M,0.003,N,0.006,K,A*38

$GNGSA,A,3,18,19,22,,,,,,,,,,5.8,3.5,4.6*24

$GNGSA,A,3,71,72,87,,,,,,,,,,5.8,3.5,4.6*29

$GPGSV,2,1,07,14,54,177,,18,48,066,47,19,45,287,47,21,33,125,*7C

$GPGSV,2,2,07,22,80,342,49,24,21,071,40,27,47,241,,,,,*48

$GLGSV,2,1,06,71,57,028,49,72,56,269,38,80,15,049,,86,49,184,*6C

$GLGSV,2,2,06,87,59,303,50,88,13,331,,,,,,,,,*66

$GNRMC,001749.00,A,4434.0412130,N,12316.4872588,W,0.00,190.11,241014,0.00,E,A*01

$GPZDA,001752.00,24,10,2014,-07,00*4D

$GNVTG,200.5850,T,200.5850,M,0.015,N,0.027,K,A*3C

$GNGSA,A,3,18,19,22,,,,,,,,,,5.8,3.5,4.6*24

$GNGSA,A,3,71,72,87,,,,,,,,,,5.8,3.5,4.6*29

$GPGSV,2,1,07,14,54,177,,18,48,066,47,19,45,287,48,21,33,125,*73

$GPGSV,2,2,07,22,80,342,49,24,21,071,41,27,47,241,,,,,*49

$GLGSV,2,1,06,71,57,028,49,72,56,269,38,80,15,049,,86,49,184,*6C

$GLGSV,2,2,06,87,59,303,50,88,13,331,,,,,,,,,*66

$GNRMC,001750.00,A,4434.0412112,N,12316.4872650,W,0.01,200.59,241014,0.00,E,A*08

$GPZDA,001753.00,24,10,2014,-07,00*4C

$GNVTG,218.1042,T,218.1042,M,0.015,N,0.028,K,A*33

$GNGSA,A,3,18,19,22,24,,,,,,,,,4.1,3.3,2.4*28

$GNGSA,A,3,71,72,87,,,,,,,,,,4.1,3.3,2.4*23

$GPGSV,2,1,07,14,54,177,,18,48,066,47,19,45,287,47,21,33,125,*7C

$GPGSV,2,2,07,22,80,342,49,24,21,071,40,27,47,241,,,,,*48

